주차장 이름,주소,주차 타입,주차 가능 차량 수,요금,요금 시간 기준,추가 요금,추가 요금 시간 기준,일일 최대 요금,현재 주차 차량 수,현재 주차 갱신 시간,평일 운영 시간,주말 운영 시간,공휴일 운영 시간,전화번호,연계 상태,위도,경도
도봉산역 공영주차장(시),도봉구 도봉동 288-19,NW,358,170,5,170,5,12200,347,2024-10-02 15:56:51,0000 ~ 2400,0000 ~ 2400,0000 ~ 2400,02)2290-6047 ,20분,37.68972069,127.04483862
도봉산길-1,도봉산길 12 ~ 도봉산길 42,T,42,0,0,0,0,0,0,,0000 ~ 0000,0000 ~ 0000,0000 ~ 0000,,미연계,37.6875029,127.0444326
도봉산 공영주차장(시),도봉구 도봉동 282-26,NW,142,170,5,170,5,12200,118,2024-10-02 15:56:51,0800 ~ 2200,0800 ~ 2200,0800 ~ 2200,010-4927-3981,20분,37.6876442,127.04066026
금성익스프레스(민영),노원구 상계동 1214-3,NP,57,1000,30,1000,10,,0,,0000 ~ 2400,0000 ~ 2400,0000 ~ 2400,02-9332424,미연계,37.683487,127.05891
도봉동 실내스포츠센터,,DI,2,0,0,0,0,0,0,,0000 ~ 0000,0000 ~ 0000,0000 ~ 0000,,미연계,37.68172877,127.0505511
도봉2동  6공영주차장(구),도봉구 도봉동 59-1,NW,13,0,0,0,0,0,0,,0000 ~ 0000,0000 ~ 0000,0000 ~ 0000,02-2091-4215,미연계,37.68304002,127.04623968
오즈호프주차장(민영),도봉구 도봉동 574-35,NP,7,3000,60,,,,0,,0000 ~ 0000,0000 ~ 0000,0000 ~ 0000,01090805468,미연계,37.684658,127.043338
마들로-3,마들로 738 ~ 마들로 756,T,28,0,0,0,0,0,0,,0000 ~ 0000,0000 ~ 0000,0000 ~ 0000,,미연계,37.6770967,127.0489796
S. 서울 사다리조합(민영),도봉구 도봉동 592-0,NP,25,0,0,0,0,0,0,,0000 ~ 0000,0000 ~ 0000,0000 ~ 0000,02-949-2000,미연계,37.67896218,127.04052002
동막골 노외공영주차장(구),노원구 상계동 31-0,NW,35,150,5,150,5,8100,0,,0900 ~ 1900,0000 ~ 0000,0000 ~ 0000,02-939-7708,미연계,37.675272,127.086427
수락산디자인서울거리(구),노원구 상계동 996-2,NS,71,150,5,0,0,19800,0,,0900 ~ 1900,0900 ~ 1800,0900 ~ 1800,,미연계,37.67451211,127.0608372
상계동강강술래,노원구 상계동 1025-4,BS,42,0,0,0,0,0,0,,0000 ~ 2400,0000 ~ 2400,0000 ~ 2400,,미연계,37.673887,127.056104
양지(민영),노원구 상계동 1004-0,NP,14,1000,30,0,0,0,0,,0900 ~ 2359,0900 ~ 2359,0900 ~ 2359,,미연계,37.67477151,127.05988739
진주(민영),노원구 상계동 1094-7,NP,17,2000,30,500,10,0,0,,0000 ~ 0000,0000 ~ 0000,0000 ~ 0000,,미연계,37.67401681,127.05193104
도봉2동 법조타운 공영주차장(구),도봉구 도봉동 624-105,NW,155,100,5,100,5,0,0,,0900 ~ 1800,0000 ~ 1800,0000 ~ 1800,02-901-5100,미연계,37.673633,127.046486
현대성우아파트,도봉구 도봉동 642-0 ,BS,228,1000,30,500,15,10000,228,2024-10-02 15:57:36,0000 ~ 2400,0000 ~ 2400,0000 ~ 2400,02-3491-8954,20분,37.676229,127.047725
무수골 주말농장(민영),도봉구 도봉동 463-1,NP,49,0,0,0,0,0,0,,0000 ~ 0000,0000 ~ 0000,0000 ~ 0000,010-4722-7036,미연계,37.67650956,127.03279833
당고개위 공영주차장(시),노원구 상계동 111-568,NS,23,260,5,260,5,0,5,2024-10-02 15:57:38,0900 ~ 2200,0900 ~ 2200,0900 ~ 2200,010-4927-3981,20분,37.67070279,127.08041836
도봉구청 부설주차장,도봉구 방학동 720-0 ,BP,310,0,60,250,5,0,295,2024-10-02 15:57:58,0900 ~ 1800,0900 ~ 1800,0000 ~ 2400,02-2091-2143,20분,37.6687158,127.04711546
방학동 월드상가 앞 주차장(구),도봉구 방학동 717-0,NS,8,250,5,0,0,0,0,,0900 ~ 1800,0900 ~ 1800,0900 ~ 1800,,미연계,37.66825212,127.04647283
인봉주차장(민영),도봉구 도봉동 611-26,NP,27,1000,30,,,0,0,,0900 ~ 2400,0900 ~ 2400,0900 ~ 2400,02-954-4071,미연계,37.670128,127.041688
방학2동주민센터,도봉구 방학동 621-2 ,BP,7,0,0,0,0,0,0,,0000 ~ 2400,0000 ~ 2400,0000 ~ 2400,02-2091-5946,미연계,37.668167,127.035024
상계9동 주민센터,노원구 상계동 682-0 ,BP,6,,,,,,0,,0000 ~ 2400,0000 ~ 2400,0000 ~ 2400,02-2116-2918,미연계,37.664543,127.063838
상계주공11단지종합상가 주차장,노원구 상계동 651-0 ,BS,30,0,0,0,0,0,0,,0000 ~ 2400,0000 ~ 2400,0000 ~ 2400,,미연계,37.66586,127.057086
상계주공12단지종합상가,노원구 상계동 649-0,BS,36,0,0,0,0,0,0,,0000 ~ 2400,0000 ~ 2400,0000 ~ 2400,,미연계,37.665937,127.057911
주공11단지상가뒤(구),노원구 상계동 652-0 ,NS,13,250,5,250,5,,0,,0900 ~ 1900,0900 ~ 1900,0000 ~ 0000,,미연계,37.6652593,127.0569759
주공12단지상가뒤(구),노원구 상계동 647-1,NS,22,250,5,0,0,33000,0,,0900 ~ 1900,0900 ~ 1800,0900 ~ 1800,,미연계,37.66730976,127.05777467
거성학마을아파트,도봉구 방학동 701-15 ,BS,314,2000,30,1000,15,0,296,2024-10-02 15:57:32,0000 ~ 2400,0000 ~ 2400,0000 ~ 2400,02-3493-4115,20분,37.666646,127.039654
도봉구 방학동 707-6 ,도봉구 방학동 707-6,BS,180,1000,30,,,,0,,0000 ~ 0000,0000 ~ 0000,0000 ~ 0000,02-16881054,미연계,37.665375,127.043562
이안테라디움방학역오피스텔,도봉구 방학동 707-0 ,BS,170,1500,30,500,10,20000,170,2024-10-02 15:57:36,0000 ~ 2400,0000 ~ 2400,0000 ~ 2400,,20분,37.665784,127.043741
홈플러스 방학점,도봉구 방학동 707-7 ,BS,611,1000,10,1000,10,30000,177,2024-10-02 15:58:03,1000 ~ 2400,1000 ~ 2400,1000 ~ 2400,02-912-2080,20분,37.66482,127.043719
도깨비시장 공영주차장(구),도봉구 방학동 632-1,NW,81,100,5,100,5,0,0,,0900 ~ 2200,0900 ~ 2200,0900 ~ 2200,02-901-5100,미연계,37.664575,127.033906
간송옛집  공영주차장(구),도봉구 방학동 58-10,NW,15,0,0,0,0,0,0,,0000 ~ 0000,0000 ~ 0000,0000 ~ 0000,02-2091-4215,미연계,37.665246,127.027521
불암산 공영주차장(구),노원구 중계동 26-0,NW,36,150,5,,,9900,0,,0900 ~ 1800,0000 ~ 0000,0000 ~ 0000,02-2289-6720,미연계,37.661895,127.079331
덕릉로-4,덕릉로 680 ~ 덕릉로 718,T,50,0,0,0,0,0,0,,0000 ~ 0000,0000 ~ 0000,0000 ~ 0000,,미연계,37.6591577,127.0754158
덕릉로-5,덕릉로 725 ~ 덕릉로83길 9-7,T,100,0,0,0,0,0,0,,0000 ~ 0000,0000 ~ 0000,0000 ~ 0000,,미연계,37.66241644,127.075718501
상계5동 주민센터,노원구 상계동 167-2 ,BP,2,,,,,,0,,0000 ~ 2400,0000 ~ 2400,0000 ~ 2400,02-2116-2835,미연계,37.662949,127.069363
상계역 서측 주택가 공영주차장(구),노원구 상계동 169-409,NW,19,150,5,150,5,8100,0,,0900 ~ 1900,0000 ~ 0000,0000 ~ 0000,,미연계,37.660036,127.071057
노원로-2,동일로 156 ~ 동일로 1456,T,17,0,0,0,0,0,0,,0000 ~ 0000,0000 ~ 0000,0000 ~ 0000,,미연계,37.6605901,127.0625196
바로선병원,도봉구 창동 749-10,BS,48,1000,60,500,30,,0,,0800 ~ 2200,0900 ~ 1500,0900 ~ 1500,02-1666-5853,미연계,37.660368,127.042164
쌍문2동 5공영주차장(구),도봉구 쌍문동 715-2,NW,77,0,0,100,5,,0,,0000 ~ 2400,0000 ~ 2400,0000 ~ 2400,02-2091-4215,미연계,37.660061,127.040884
정병원 주차장,도봉구 쌍문동 707-7 ,BS,29,1000,30,500,10,,0,,0700 ~ 1900,0900 ~ 1500,0000 ~ 0000,010-8872-4657,미연계,37.661545,127.041734
신한은행 방학동지점,도봉구 방학동 691-7 ,BS,24,0,15,2000,20,60000,26,2024-10-02 15:57:27,0000 ~ 2400,0000 ~ 2400,0000 ~ 2400,,20분,37.663147,127.036928
학마을 도서관,,DI,1,0,0,0,0,0,0,,0000 ~ 0000,0000 ~ 0000,0000 ~ 0000,,미연계,37.66222,127.027916
교통광장공영주차장(구),강북구 우이동 265-0,NW,56,200,5,200,5,10000,0,,0000 ~ 2400,0000 ~ 2400,0000 ~ 2400,02-944-3027,미연계,37.663387,127.012621
도선사주차장(민영),강북구 우이동 18-5,NP,50,1500,30,,,10000,0,,0700 ~ 1900,0000 ~ 0000,0000 ~ 0000,,미연계,37.662485,127.011313
우이제일교회,강북구 우이동 137-0 ,BS,5,,,,,,0,,0000 ~ 0000,0000 ~ 0000,0000 ~ 0000,02-904-8112,미연계,37.659856,127.010262
삼양로-1,삼양로 665 ~ 삼양로 637,T,50,0,0,0,0,0,0,,0000 ~ 0000,0000 ~ 0000,0000 ~ 0000,,미연계,37.66165466,127.01316159
중계4동 임시공영주차장(구),노원구 중계동 606-2,NW,39,150,5,150,5,8100,0,,1000 ~ 1900,1000 ~ 1800,0000 ~ 0000,,미연계,37.65859344,127.07355671
한터(민영),노원구 중계동 157-47,NP,14,3000,60,1000,30,0,0,,0000 ~ 0000,0000 ~ 0000,0000 ~ 0000,,미연계,37.65845059,127.07637141
한글비석로-2,덕릉로 662 앞 ~ 한글비석로 346,T,11,0,0,0,0,0,0,,0000 ~ 0000,0000 ~ 0000,0000 ~ 0000,,미연계,37.6573776,127.0768168
상계2동 공영주차장(구),노원구 상계동 373-13,NW,108,150,5,150,5,11000,0,,0000 ~ 2400,0000 ~ 2400,0000 ~ 2400,02-931-2758,미연계,37.656735,127.06754
금호스포츠센터(민영),노원구 상계동 358-3,NP,27,1000,30,1000,10,5000,0,,0600 ~ 2400,0600 ~ 2400,0600 ~ 2400,,미연계,37.657621,127.063007
노원빌딩부설주차장,노원구 상계동 336-0 ,BS,10,2000,30,2000,30,0,0,,0900 ~ 2200,0900 ~ 2200,0900 ~ 2200,,미연계,37.65660558,127.06328789
대감프라자,노원구 상계동 366-4,BS,59,1700,10,1700,10,0,0,,0800 ~ 2300,0800 ~ 2300,0800 ~ 2300,,미연계,37.657312,127.06546
드림빌딩 주차장,노원구 상계동 349-16 ,BS,12,2000,60,3000,60,,0,,0900 ~ 2100,0900 ~ 2100,0900 ~ 2100,,미연계,37.657099,127.064799
롯데백화점 노원점(별관) 주차장,노원구 상계동 714-0 ,BS,492,1000,30,1000,10,0,193,2024-10-02 15:50:00,1030 ~ 2000,1030 ~ 2030,1030 ~ 2030,02-905-2007,20분,37.655348,127.061802
롯데백화점 노원점(본관) 주차장,노원구 상계동 713-0 ,BS,488,1000,30,1000,10,,322,2024-10-02 15:50:00,1030 ~ 2000,1030 ~ 2030,1030 ~ 2030,02-950-2007,20분,37.654954,127.06086
와우쇼핑몰 주차장,노원구 상계동 292-1 ,BS,182,3000,30,2000,10,,0,,0700 ~ 0000,0700 ~ 0000,0700 ~ 0000,,미연계,37.655355,127.063789
위성프라자 주차장,노원구 상계동 693-2 ,BS,89,1000,10,1000,10,,0,,0000 ~ 2400,0000 ~ 2400,0000 ~ 2400,,미연계,37.656088,127.061057
주공7단지옆(구),노원구 상계동 693-5,NS,17,250,5,0,0,33000,0,,0900 ~ 1900,0900 ~ 1800,0900 ~ 1800,,미연계,37.65638366,127.06140101
청우빌딩 주차장,노원구 상계동 324-0 ,BS,15,0,0,0,0,0,0,,0000 ~ 0000,0000 ~ 0000,0000 ~ 0000,,미연계,37.65621,127.065815
한일빌딩 주차장,노원구 상계동 593-3 ,BS,20,2000,30,1500,30,0,0,,0800 ~ 2200,0800 ~ 2200,0800 ~ 2200,,미연계,37.65671017,127.06262919
화랑빌딩,노원구 상계동 617-0 ,BS,76,700,10,700,10,,0,,0000 ~ 2400,0000 ~ 2400,0000 ~ 2400,,미연계,37.655714,127.062342
노해로-3,노해로 521 ~ 노해로 495,T,40,0,0,0,0,0,0,,0000 ~ 0000,0000 ~ 0000,0000 ~ 0000,,미연계,37.6553715,127.0647143
구청사주변(구),노원구 상계동 739-4,NS,74,250,5,250,5,0,0,,0900 ~ 2000,0000 ~ 0000,0000 ~ 0000,,미연계,37.65494045,127.05662451
남성빌딩 주차장,노원구 상계동 712-0 ,BS,21,0,30,1000,10,,0,,0500 ~ 2200,0500 ~ 1500,0500 ~ 1500,,미연계,37.654748,127.060055
도봉운전면허시험장,노원구 상계동 580-9 ,BP,120,,,,,,0,,0900 ~ 1800,0000 ~ 0000,0000 ~ 0000,02-2092-0198,미연계,37.658006,127.058751
디와이홀딩스빌딩 주차장,노원구 상계동 711-12,BS,67,0,0,0,0,0,0,,0800 ~ 2200,0800 ~ 2200,0800 ~ 2200,,미연계,37.655308,127.059896
미도빌딩 주차장,노원구 상계동 693-0 ,BS,21,1000,10,1000,10,,0,,0000 ~ 2400,0000 ~ 2400,0000 ~ 2400,,미연계,37.655987,127.060567
삼양빌딩 주차장,노원구 상계동 711-13 ,BS,25,2000,30,500,10,0,0,,0700 ~ 2200,0700 ~ 2200,0700 ~ 2200,,미연계,37.655037,127.060027
창동 문화체육센터,,DI,4,0,0,0,0,0,0,,0000 ~ 0000,0000 ~ 0000,0000 ~ 0000,,미연계,37.65836428,127.0511926
LG전자베스트샵 쌍문본점,도봉구 쌍문동 692-0 ,BS,29,1000,10,1000,10,50000,29,2024-10-02 15:57:31,0000 ~ 2400,0000 ~ 2400,0000 ~ 2400,,20분,37.654867,127.037972
삼성전자 주차장(민영),도봉구 쌍문동 659-1,NP,44,3000,30,2000,10,0,0,,0000 ~ 0000,0000 ~ 0000,0000 ~ 0000,010-4127-4977,미연계,37.655352,127.038223
우이동 공영주차장(시),강북구 우이동 105-2,NW,82,,,,,80000,29,2024-10-02 15:57:33,0000 ~ 2400,0000 ~ 2400,0000 ~ 2400,02-944-3044,20분,37.65671789,127.01163698
정안빌딩,도봉구 쌍문동 508-1 ,BS,55,1000,30,1000,30,15000,55,2024-10-02 15:57:32,0000 ~ 2400,0000 ~ 2400,0000 ~ 2400,,20분,37.657457,127.01391
수련원주차장(민영),강북구 우이동 260-6,NP,43,2000,60,1000,30,5000,0,,0000 ~ 2400,0000 ~ 2400,0000 ~ 2400,,미연계,37.656644,127.000271
은평구 진관동 275-2(민영),은평구 진관동 275-2,NP,,,,,,,0,,0000 ~ 0000,0000 ~ 0000,0000 ~ 0000,,미연계,37.6557447,126.9466672
승진기업주차장(민영),은평구 진관동 294-5,NP,22,1000,30,500,15,0,0,,0000 ~ 0000,0000 ~ 0000,0000 ~ 0000,,미연계,37.65564457,126.94043621
유경백화점뒤(구),노원구 중계동 364-16,NS,36,250,5,0,0,33000,0,,0900 ~ 1900,0900 ~ 1800,0900 ~ 1800,,미연계,37.65027847,127.0780048
신한증권옆(구),노원구 중계동 366-12,NS,31,250,5,0,0,33000,0,,0900 ~ 1900,0900 ~ 1800,0900 ~ 1800,,미연계,37.65145115,127.07755808
주공5단지옆(구),노원구 중계동 359-16,NS,31,250,5,0,0,33000,0,,0900 ~ 1900,0900 ~ 1800,0900 ~ 1800,,미연계,37.65239996,127.07725342
청구건영아파트옆(구),노원구 중계동 360-4,NS,42,250,5,0,0,33000,0,,0900 ~ 1900,0900 ~ 1800,0900 ~ 1800,,미연계,37.65039896,127.07542707
덕릉로,덕릉로77길 5 ~ 덕릉로77길 5,T,6,0,0,0,0,0,0,,0000 ~ 0000,0000 ~ 0000,0000 ~ 0000,,미연계,37.653879090404644,127.07390048269823
KT노원타워,노원구 상계동 723-0 ,BS,153,1000,30,1000,30,15000,138,2024-10-02 15:58:37,0800 ~ 2400,0800 ~ 2400,0800 ~ 2400,,20분,37.65445795,127.06369619
고려빌딩 주차장,노원구 상계동 724-3 ,BS,30,2000,30,2000,30,0,0,,0800 ~ 2400,0800 ~ 2400,0800 ~ 2400,,미연계,37.654482,127.063086
길빌딩 주차장,노원구 상계동 724-1 ,BS,23,2000,30,2000,30,0,0,,0800 ~ 2300,0800 ~ 2300,0800 ~ 2300,,미연계,37.65432535,127.06216783
덕영빌딩 주차장,노원구 상계동 727-0,BS,22,3000,60,3000,60,0,0,,1000 ~ 2000,1000 ~ 2000,1000 ~ 2000,,미연계,37.654178,127.061695
원흥상가 주차장,노원구 상계동 725-2,BS,15,2000,30,2000,30,0,0,,0800 ~ 2000,0800 ~ 2000,0800 ~ 2000,,미연계,37.654088,127.062685
조광빌딩 주차장,노원구 상계동 727-1 ,BS,38,1500,30,1500,30,0,0,,0800 ~ 2100,0800 ~ 2100,0800 ~ 2100,,미연계,37.654097,127.061434
주공6단지상가주변(구),노원구 상계동 723-2,NS,40,250,5,0,0,33000,0,,0900 ~ 1900,0900 ~ 1800,0900 ~ 1800,,미연계,37.65405646,127.06333087
중원빌딩 주차장,노원구 상계동 728-1 ,BS,45,3000,30,3000,30,0,0,,0800 ~ 2000,0800 ~ 2000,0800 ~ 2000,,미연계,37.653195,127.061345
프린스빌딩 주차장,노원구 상계동 724-2 ,BS,26,2000,30,2000,30,0,0,,0900 ~ 1900,0900 ~ 1700,0900 ~ 1700,,미연계,37.654374,127.062757
교보생명상계사옥[노원역 2호점],노원구 상계동 712-1 ,BS,128,0,10,1000,10,20000,0,,0600 ~ 2400,0600 ~ 2400,0600 ~ 2400,,미연계,37.65445,127.059965
노원구청 주차장,노원구 상계동 701-1 ,BP,216,250,5,250,5,16500,0,,0000 ~ 2400,0000 ~ 2400,0000 ~ 2400,02-2116-3080,미연계,37.654119,127.056663
메가빌딩 주차장,노원구 상계동 709-2 ,BS,56,0,30,1000,10,0,0,,0700 ~ 2300,0700 ~ 2300,0700 ~ 2300,,미연계,37.654225,127.059019
은성빌딩 주차장,노원구 상계동 709-1 ,BS,11,0,30,500,10,0,0,,0000 ~ 0000,0000 ~ 0000,0000 ~ 0000,,미연계,37.654177,127.058782
주공3단지상가주변(구),노원구 상계동 735-0 ,NS,32,250,5,250,5,,0,,0900 ~ 1900,0900 ~ 1900,0000 ~ 0000,,미연계,37.6531352,127.0580635
청산빌딩 주차장,노원구 상계동 705-2 ,BS,32,1500,30,1500,30,,0,,0700 ~ 2100,0000 ~ 0000,0000 ~ 0000,,미연계,37.654068,127.058252
태웅빌딩 주차장,노원구 상계동 705-0 ,BS,22,0,30,1000,15,,0,,0700 ~ 2200,0700 ~ 1900,0000 ~ 0000,,미연계,37.653983,127.057798
한화생명빌딩 주차장,노원구 상계동 731-0 ,BS,68,500,10,500,10,0,0,,0700 ~ 2400,0700 ~ 1900,0000 ~ 0000,,미연계,37.653754,127.059704
노원세무서,도봉구 창동 15-0 ,BP,47,0,0,0,0,0,0,,1800 ~ 0700,0000 ~ 2400,0000 ~ 2400,02-3499-0247,미연계,37.653197,127.051257
노원세무서 앞 공영주차장(구),도봉구 창동 15-0,NS,28,250,5,0,0,0,0,,0800 ~ 1900,0800 ~ 1900,0800 ~ 1900,,미연계,37.65401238,127.05202441
백상빌딩 주차장,도봉구 창동 15-1,BS,138,1000,30,1000,30,0,0,,0800 ~ 2100,0800 ~ 2100,0800 ~ 2200,02-995-3661,미연계,37.653525,127.051868
씨드큐브창동,도봉구 창동 1-28 ,BS,961,2000,30,1000,10,30000,308,2024-10-02 15:54:09,0000 ~ 2400,0000 ~ 2400,0000 ~ 2400,02-6077-8780,20분,37.65439,127.049764
창동역 (구)구청별관주차장(구),도봉구 창동 5-1,NS,30,250,5,0,0,0,0,,1000 ~ 2000,1000 ~ 2000,1000 ~ 2000,,미연계,37.65312879,127.04966919
하나빌딩주차장,도봉구 창동 8-1,BS,21,1500,30,500,10,15000,0,,0800 ~ 2400,0800 ~ 2400,0800 ~ 2400,010-6654-4399,미연계,37.652476,127.049701
GS타임즈이마트창동점,도봉구 창동 135-26 ,BS,159,4000,40,1000,10,30000,0,,0000 ~ 2400,0000 ~ 2400,0000 ~ 2400,02-901-1052,미연계,37.65203,127.047393
동순그린빌딩 주차장,도봉구 창동 75-13,BS,9,1000,30,1000,30,0,0,,0000 ~ 0000,0000 ~ 0000,0000 ~ 0000,,미연계,37.651755,127.046635
월가타워 주차장,도봉구 창동 7-0 ,BS,41,500,10,500,10,15000,0,,0600 ~ 2400,0600 ~ 2400,0600 ~ 2400,,미연계,37.652242,127.049069
창동역(서) 공영주차장(시),도봉구 창동 330-0,NW,106,260,5,260,5,18700,102,2024-10-02 15:58:11,0000 ~ 2400,0000 ~ 2400,0000 ~ 2400,010-4927-3981,20분,37.65237042,127.04567683
도봉구민회관,,DI,2,0,0,0,0,0,0,,0000 ~ 0000,0000 ~ 0000,0000 ~ 0000,,미연계,37.65394147,127.0383853
쌍문2동 2공영주차장(구),도봉구 쌍문동 81-102,NW,18,0,0,0,0,0,0,,0000 ~ 0000,0000 ~ 0000,0000 ~ 0000,029015100,미연계,37.653237,127.033561
둘리뮤지엄  공영주차장(구),도봉구 쌍문동 79-0,NW,25,100,5,,,0,0,,0000 ~ 2400,0000 ~ 2400,0000 ~ 2400,02-901-5100,미연계,37.653714,127.027877
창암(민영),은평구 진관동 295-2,NP,33,1000,30,500,15,0,0,,0000 ~ 2400,0000 ~ 2400,0000 ~ 2400,,미연계,37.65399111,126.93898137
한글비석로-1,중계동 362 ~ 중계동 313,T,31,0,0,0,0,0,0,,0000 ~ 0000,0000 ~ 0000,0000 ~ 0000,,미연계,37.6466172,127.0763959
롯데마트 중계점,노원구 중계동 361-0 ,BS,710,1500,30,1500,30,30000,0,,1000 ~ 2300,1000 ~ 2300,1000 ~ 2300,02-2092-2500,미연계,37.64671801,127.0709501
덕릉로-3,노원로22길 1 ~ 덕릉로 580,T,18,0,0,0,0,0,0,,0000 ~ 0000,0000 ~ 0000,0000 ~ 0000,,미연계,37.6494383,127.0701885
상계백병원 주차장,노원구 상계동 761-1 ,BS,349,2000,31,500,10,30000,245,2024-10-02 15:58:48,0000 ~ 2400,0000 ~ 2400,0000 ~ 2400,02-950-4809,20분,37.648654,127.063009
창1동주민센터,도봉구 창동 347-5 ,BP,8,0,0,0,0,0,0,,0000 ~ 2400,0000 ~ 2400,0000 ~ 2400,02-2091-5678,미연계,37.648375,127.043826
초안산 창골주차장(구),도봉구 창동 677-0,NW,71,100,5,,,,0,,0000 ~ 0000,0000 ~ 0000,0000 ~ 0000,029015100,미연계,37.6489697,127.0402937
도봉로110길-1,도봉로110길 8 ~ 도봉로110길 92,T,57,0,0,0,0,0,0,,0000 ~ 0000,0000 ~ 0000,0000 ~ 0000,,미연계,37.6463745,127.0383905
해등로3길,창동 산 126-1 ~ 창동 356,T,7,0,0,0,0,0,0,,0000 ~ 0000,0000 ~ 0000,0000 ~ 0000,,미연계,37.64676601285892,127.04120582530538
대명빌딩 주차장,도봉구 창동 659-3,BS,17,1500,30,500,10,0,0,,0900 ~ 1900,0900 ~ 1900,0900 ~ 1900,010-6260-9343,미연계,37.64906,127.035319
더블유 Tmap 주차장(민영),도봉구 쌍문동 96-24,NP,18,2000,30,20000,30,40000,18,2024-10-02 15:58:47,0000 ~ 2400,0000 ~ 2400,0000 ~ 2400,,20분,37.64775334,127.03373409
삼성쉐르빌 오피스텔 주차장,도봉구 창동 659-29,BS,163,3000,60,1500,30,,0,,0000 ~ 0000,0000 ~ 0000,0000 ~ 0000,02-900-7048,미연계,37.647823,127.034705
쌍문주차장(민영),도봉구 쌍문동 103-1,NP,36,1500,30,1500,30,,0,,0800 ~ 2359,0800 ~ 2359,0800 ~ 2359,010-9084-8995,미연계,37.646503,127.03307
원형빌딩 주차장,도봉구 쌍문동 96-4,BS,31,1000,30,500,10,7000,0,,0800 ~ 1900,0800 ~ 1500,0000 ~ 0000,010-6201-7321,미연계,37.647109,127.0334
창1동 1공영주차장(구),도봉구 창동 657-37,NW,42,100,5,100,5,0,0,,0900 ~ 1800,0900 ~ 1800,0900 ~ 1800,02-2091-4215,미연계,37.647127,127.037191
하나제2빌딩 주차장,도봉구 쌍문동 88-105 ,BS,10,1000,20,3000,60,15000,0,,0900 ~ 1800,0900 ~ 1300,0000 ~ 0000,02-996-6264,미연계,37.649139,127.034637
홍일빌딩 주차장,도봉구 창동 655-20 ,BS,28,1500,30,500,10,0,0,,0900 ~ 1800,0000 ~ 0000,0000 ~ 0000,02-997-0066,미연계,37.647328,127.034417
쌍문3동주민센터,도봉구 쌍문동 327-0 ,BP,11,0,0,0,0,0,0,,1800 ~ 0800,0000 ~ 2400,0000 ~ 2400,02-2091-5554,미연계,37.648946,127.027983
한일병원,도봉구 쌍문동 388-1 ,BP,365,1000,30,500,10,,0,,0000 ~ 0000,0000 ~ 0000,0830 ~ 2400,02-901-3227,미연계,37.645882,127.02852
수유2동 공영주차장(구),강북구 수유동 660-30,NW,62,150,5,150,5,10000,0,,0000 ~ 2400,0000 ~ 2400,0000 ~ 2400,02-900-7443,미연계,37.646021,127.021916
청록운수 차고지(민영),도봉구 쌍문동 360-31,NP,10,0,0,0,0,0,0,,0000 ~ 0000,0000 ~ 0000,0000 ~ 0000,,미연계,37.6495601,127.0234901
노해로-2,노해로 123 ~ 노해로 105,T,28,0,0,0,0,0,0,,0000 ~ 0000,0000 ~ 0000,0000 ~ 0000,,미연계,37.64610382,127.02460301
쌍문동 434-8 자투리 주차장(민영),도봉구 쌍문동 434-8,NP,10,0,0,0,0,0,0,,0000 ~ 0000,0000 ~ 0000,0000 ~ 0000,,미연계,37.649828,127.018459
한천로-5,한천로 1161 ~ 한천로 1107,T,77,0,0,0,0,0,0,,0000 ~ 0000,0000 ~ 0000,0000 ~ 0000,,미연계,37.6461238,127.0180425
한천로-6,한천로 1108-1 ~ 한천로 1160,T,71,0,0,0,0,0,0,,0000 ~ 0000,0000 ~ 0000,0000 ~ 0000,,미연계,37.6456881,127.0190789
우이동 주민센터(수유4동),강북구 수유동 568-100 ,BS,5,0,0,0,0,0,0,,0000 ~ 0000,0000 ~ 0000,0000 ~ 0000,,미연계,37.647922,127.011941
삼양로-3,삼양로 495 ~ 삼양로 451,T,62,0,0,0,0,0,0,,0000 ~ 0000,0000 ~ 0000,0000 ~ 0000,,미연계,37.64731326,127.01459393
삼양로-4,삼양로 452 ~ 삼양로 494,T,57,0,0,0,0,0,0,,0000 ~ 0000,0000 ~ 0000,0000 ~ 0000,,미연계,37.64592835,127.01544361
서울시립과학관 부설주차장,노원구 하계동 21-0 ,BP,114,150,5,150,5,14400,42,2024-10-02 15:58:58,0900 ~ 1800,0900 ~ 1800,0900 ~ 1800,02-534-3837,20분,37.641981,127.077432
2001아울렛 중계점,노원구 중계동 509-0 ,BS,263,0,30,1000,10,,196,2024-10-02 15:58:48,1000 ~ 2200,1000 ~ 2200,1000 ~ 2200,02-948-2001,20분,37.64129794,127.06801938
마들스타디움(근린공원)(구),노원구 상계동 770-2,NW,249,150,5,150,5,11000,0,,0900 ~ 1900,0900 ~ 1800,0000 ~ 0000,02-2289-6735,미연계,37.643878,127.058614
도봉 문화정보도서관,,DI,1,0,0,0,0,0,0,,0000 ~ 0000,0000 ~ 0000,0000 ~ 0000,,미연계,37.64459,127.04404
초안산꽃동산공영주차장(구),도봉구 창동 441-5,NW,15,100,5,100,5,,0,,0900 ~ 1900,0900 ~ 1900,0900 ~ 1900,,미연계,37.642485,127.041783
우영마트 주차장,도봉구 창동 632-39,BS,76,3000,30,6000,60,0,0,,0900 ~ 2100,0900 ~ 2100,0900 ~ 2100,02-997-0012,미연계,37.641628,127.035137
창2동 4공영주차장(구),도봉구 창동 582-22,NW,82,100,5,100,5,,0,,0900 ~ 1800,0900 ~ 1800,0900 ~ 1800,02-2091-4215,미연계,37.641244,127.036308
가오천 노상공영(구),강북구 수유동 181-40,NS,63,200,5,200,5,10000,0,,0900 ~ 1900,0900 ~ 1500,0000 ~ 0000,,미연계,37.64394006,127.02532497
예일주차장(민영),강북구 수유동 178-43,NP,23,1500,30,1000,10,,0,,0000 ~ 2400,0000 ~ 0000,0000 ~ 0000,,미연계,37.641839,127.025067
강북종합-1,한천로 1048 ~ 한천로 1084,T,51,0,0,0,0,0,0,,0000 ~ 0000,0000 ~ 0000,0000 ~ 0000,,미연계,37.6411807,127.0253632
노해로-1,노해로 98 ~ 노해로 114,T,24,0,0,0,0,0,0,,0000 ~ 0000,0000 ~ 0000,0000 ~ 0000,,미연계,37.6442412,127.0233241
수유중앙-1,노해로 73 ~ 노해로 29,T,68,0,0,0,0,0,0,,0000 ~ 0000,0000 ~ 0000,0000 ~ 0000,,미연계,37.6419233,127.02229501
벽산 노상공영(구),강북구 수유동 36-1,NS,43,200,5,200,5,10000,0,,0900 ~ 1900,0900 ~ 1500,0000 ~ 0000,,미연계,37.64148613,127.0207821
벽산공영(구),강북구 수유동 186-5 ,NS,21,200,5,200,5,15000,0,,0900 ~ 1900,0900 ~ 1500,0000 ~ 0000,,미연계,37.641328,127.02097
수유2동 주민센터,강북구 수유동 730-1 ,BS,7,0,0,0,0,0,0,,0000 ~ 0000,0000 ~ 0000,0000 ~ 0000,,미연계,37.644629,127.019911
정암빌딩 주차장,강북구 수유동 381-2,BS,14,1000,30,500,10,0,0,,0700 ~ 2400,0700 ~ 2400,0700 ~ 2400,,미연계,37.641499,127.017237
가오리 공영주차장(구),강북구 수유동 349-3,NW,120,150,5,150,5,10000,81,2024-10-02 15:58:11,0000 ~ 2400,0000 ~ 2400,0000 ~ 2400,02-944-3046,20분,37.64160736,127.01498164
삼원주차장(민영),강북구 수유동 286-7,NP,10,1000,60,1000,60,,0,,0600 ~ 2000,0600 ~ 2000,0600 ~ 2000,02-994-1369,미연계,37.64498397,127.01517293
인수동 주민센터(수유6동),강북구 수유동 527-19 ,BS,8,0,0,0,0,0,0,,0000 ~ 0000,0000 ~ 0000,0000 ~ 0000,,미연계,37.641467,127.01061
아카데미 노상공영(구),강북구 수유동 535-76,NS,63,200,5,200,5,10000,0,,0900 ~ 1900,0900 ~ 1500,0900 ~ 1800,,미연계,37.64519404,127.00567348
통일교육원 주차장,강북구 수유동 535-353 ,BP,16,,,,,,0,,0000 ~ 0000,0900 ~ 1900,0900 ~ 1900,02-901-7122,미연계,37.641716,127.003496
은평한옥마을(민영),은평구 진관동 205-0,NP,,0,5,3000,60,,0,,0000 ~ 2400,0000 ~ 2400,0000 ~ 2400,,미연계,37.642197,126.9396264
연서로-1,진광동 186 ~ 진관동 218,T,21,0,0,0,0,0,0,,0000 ~ 0000,0000 ~ 0000,0000 ~ 0000,,미연계,37.6424222,126.9387665
노브랜드 은평진관점,은평구 진관동 74-0 ,BS,101,0,0,0,0,0,0,,1000 ~ 2200,1000 ~ 2200,1000 ~ 2200,,미연계,37.6447477008303,126.911792625929
국민체육진흥공단 한국스포츠개발원,노원구 공릉동 26-17 ,BP,10,,,,,,0,,0700 ~ 2000,0700 ~ 2000,0700 ~ 2000,02-970-2918,미연계,37.6376403,127.1047502
노원로-1,노원로 183 ~ 노원로 183,T,14,0,0,0,0,0,0,,0000 ~ 0000,0000 ~ 0000,0000 ~ 0000,,미연계,37.63674394,127.07978598
가재울 공영주차장(구),노원구 하계동 252-6,NW,121,150,5,150,5,11000,0,,0900 ~ 1900,0900 ~ 1900,0900 ~ 1900,,미연계,37.637358,127.07334
한신동성아파트옆(구),노원구 하계동 256-7,NS,16,250,5,0,0,33000,0,,0900 ~ 1900,0900 ~ 1800,0900 ~ 1800,,미연계,37.64037796,127.07378646
등나무근린공원(구),노원구 중계동 508-1,NW,129,250,5,250,5,16500,0,,1000 ~ 2100,1000 ~ 2200,0000 ~ 0000,029497706,미연계,37.640284,127.067699
홈플러스 중계점,노원구 중계동 509-2,BS,710,1000,10,1000,10,30000,75,2024-10-02 15:59:09,1000 ~ 2400,1000 ~ 2400,1000 ~ 2400,02-986-2080,20분,37.639866,127.068575
중계근린공원공영주차장(구),노원구 중계동 507-0,NW,122,250,5,250,5,16500,0,,1000 ~ 2100,1000 ~ 2200,0000 ~ 0000,02-949-7705,미연계,37.639581,127.065188
동일로205길-1,중계동 504-1 ~ 중계동 504-1,T,29,0,0,0,0,0,0,,0000 ~ 0000,0000 ~ 0000,0000 ~ 0000,,미연계,37.6403994,127.06302601
동일로205길-2,중계동 505 ~ 중계동 505,T,29,0,0,0,0,0,0,,0000 ~ 0000,0000 ~ 0000,0000 ~ 0000,,미연계,37.6396902,127.0611311
삼익쇼핑센터 주차장,도봉구 창동 581-28,BS,54,1000,30,1000,30,0,0,,0700 ~ 1900,0700 ~ 1900,0700 ~ 1900,02-907-0031,미연계,37.640147,127.037372
수송초등학교 공영주차장(구),강북구 번동 456-0,NW,185,200,5,200,5,10000,119,2024-10-02 15:58:27,0000 ~ 0000,0000 ~ 0000,0000 ~ 0000,02-944-3036,20분,37.63709333,127.03300942
NH농협은행 강북중앙지점 주차장,강북구 수유동 174-5,BS,9,0,0,0,0,0,0,,0800 ~ 2100,0800 ~ 2100,0000 ~ 0000,,미연계,37.640613,127.027986
천지빌딩 주차장,강북구 수유동 174-17,BS,24,2000,30,500,10,30000,0,,0000 ~ 0000,0000 ~ 0000,0000 ~ 0000,,미연계,37.64022335,127.0270844
한천로-7,한천로 1013 ~ 한천로 991,T,28,0,0,0,0,0,0,,0000 ~ 0000,0000 ~ 0000,0000 ~ 0000,,미연계,37.6384992,127.0289033
한천로-8,한천로 990 ~ 한천로 1012,T,31,0,0,0,0,0,0,,0000 ~ 0000,0000 ~ 0000,0000 ~ 0000,,미연계,37.6373751,127.0310338
강북구청,강북구 수유동 192-59 ,BP,80,250,5,250,5,0,0,,0900 ~ 1800,0000 ~ 0000,0000 ~ 0000,,미연계,37.6395558,127.02546726
구청앞(구),강북구 수유동 191-1,NS,21,250,5,250,5,15000,0,,0900 ~ 1900,0900 ~ 1500,0000 ~ 0000,,미연계,37.63966326,127.02621557
대명주차장(민영),강북구 수유동 10-4,NP,16,1000,30,,,15000,0,,0000 ~ 2400,0000 ~ 2400,0000 ~ 2400,,미연계,37.637992,127.022589
수유3동 주민센터,강북구 수유동 223-8 ,BS,5,0,0,0,0,0,0,,0000 ~ 0000,0000 ~ 0000,0000 ~ 0000,,미연계,37.638707,127.023118
시범 공영주차장(구),강북구 수유동 190-11,NW,45,250,5,250,5,20000,31,2024-10-02 15:58:18,0800 ~ 2200,0800 ~ 2200,0900 ~ 1800,02-944-3029,20분,37.64005648,127.02595849
에피소드수유838,강북구 수유동 740-0 ,BS,558,1000,15,1000,15,20000,558,2024-10-02 15:58:51,0000 ~ 2400,0000 ~ 2400,0000 ~ 2400,,20분,37.636932,127.023307
현대크리스탈 주차장,강북구 수유동 224-15,BS,40,3000,60,3000,60,10000,0,,0000 ~ 0000,0000 ~ 0000,0000 ~ 0000,,미연계,37.638532,127.024225
국립재활원 주차장,강북구 수유동 520-0 ,BP,200,,,,,,0,,0000 ~ 2400,0000 ~ 2400,0000 ~ 2400,02-901-1508,미연계,37.638841,127.010779
구파발역 공영주차장(시),은평구 진관동 66-30,NW,399,170,5,170,5,12200,415,2024-10-02 15:58:51,0000 ~ 2400,0000 ~ 2400,0000 ~ 2400,02-2290-6088,20분,37.63800702,126.91932176
롯데몰 은평점 주차장,은평구 진관동 63-0 ,BS,1514,0,30,1000,30,0,978,2024-10-02 15:50:00,0000 ~ 2400,0000 ~ 2400,0000 ~ 2400,02-2674-0000,20분,37.6374717811,126.91783905
한국(민영),노원구 하계동 168-1,NP,6,2000,30,0,0,0,0,,0000 ~ 0000,0000 ~ 0000,0000 ~ 0000,,미연계,37.63636362,127.07317085
노원을지대학교병원 주차장,노원구 하계동 280-1,BS,337,2000,31,500,10,15000,247,2024-10-02 15:59:17,0000 ~ 2400,0000 ~ 2400,0000 ~ 2400,02-970-8441,20분,37.63642,127.070002
초안산로-1,초안산로 89 ~ 초안산로5길 12,T,47,0,0,0,0,0,0,,0000 ~ 0000,0000 ~ 0000,0000 ~ 0000,,미연계,37.63497856,127.05216112
초안산로-2,초안산로 58 ~ 월계동 663,T,47,0,0,0,0,0,0,,0000 ~ 0000,0000 ~ 0000,0000 ~ 0000,,미연계,37.63262338,127.05241768
"강북구 보건소, 번2동 주민센터",강북구 번동 232-0 ,BS,20,0,0,0,0,0,0,,1800 ~ 0900,0000 ~ 2400,0000 ~ 2400,,미연계,37.632187,127.038835
창3동 1공영주차장(구),도봉구 창동 504-21,NW,80,100,5,100,5,0,0,,0900 ~ 1800,0900 ~ 1800,0900 ~ 1800,02-2091-4215,미연계,37.633166,127.041348
북부시장 고객주차장(민영),강북구 번동 413-48,NP,8,0,0,0,0,0,0,,0000 ~ 0000,0000 ~ 0000,0000 ~ 0000,02-902-1683,미연계,37.63650292,127.03011547
덕릉로-6,덕릉로 121 ~ 덕릉로 109,T,17,0,0,0,0,0,0,,0000 ~ 0000,0000 ~ 0000,0000 ~ 0000,,미연계,37.6350701,127.0271756
덕릉로-7,덕릉로 98 ~ 덕릉로 122,T,34,0,0,0,0,0,0,,0000 ~ 0000,0000 ~ 0000,0000 ~ 0000,,미연계,37.6348684,127.0270841
덕릉로-8,덕릉로 159 ~ 덕릉로 135,T,31,0,0,0,0,0,0,,0000 ~ 0000,0000 ~ 0000,0000 ~ 0000,,미연계,37.63518801,127.0291839
덕릉로-9,덕릉로 140 ~ 덕릉로 168-1,T,40,0,0,0,0,0,0,,0000 ~ 0000,0000 ~ 0000,0000 ~ 0000,,미연계,37.6351823,127.03161301
나눔터길 노상공영(구),강북구 수유동 605-185,NS,51,200,5,200,5,10000,0,,0900 ~ 1900,0900 ~ 1500,0000 ~ 0000,,미연계,37.63632336,127.02225223
한국마사회 강북지사,강북구 번동 449-6 ,BP,90,,,,,,0,,0900 ~ 1800,0900 ~ 1800,0900 ~ 1800,02-6312-2000,미연계,37.635336,127.023738
덕릉로-1,덕릉로 99 ~ 덕릉로 95,T,4,0,0,0,0,0,0,,0000 ~ 0000,0000 ~ 0000,0000 ~ 0000,,미연계,37.63489601,127.0247048
도봉로82길-1,도봉로82길 22 ~ 도봉로82길 28,T,7,0,0,0,0,0,0,,0000 ~ 0000,0000 ~ 0000,0000 ~ 0000,,미연계,37.6352088,127.0249817
도봉로82길-2,도봉로82길 35 ~ 도봉로82길 25,T,7,0,0,0,0,0,0,,0000 ~ 0000,0000 ~ 0000,0000 ~ 0000,,미연계,37.6351529,127.0253917
빨래골 노상공영(구),강북구 수유동 49-27,NS,35,200,5,200,5,10000,0,,0900 ~ 1900,0900 ~ 1500,0000 ~ 0000,02-944-3025,미연계,37.63412863,127.01937423
색동공원공영주차장(구),강북구 수유동 49-7,NW,80,200,5,200,5,,0,,0000 ~ 2400,0000 ~ 2400,0000 ~ 2400,02-985-3492,미연계,37.6332,127.020703
인수동공영주차장(구),강북구 수유동 126-0,NW,89,200,5,200,5,10000,65,2024-10-02 15:58:58,0000 ~ 2400,0000 ~ 2400,0000 ~ 2400,02-944-3045,20분,37.63608367,127.01844991
덕릉로-2,덕릉로 31 ~ 덕릉로 21,T,14,0,0,0,0,0,0,,0000 ~ 0000,0000 ~ 0000,0000 ~ 0000,,미연계,37.63423352,127.01698296
화계주차장(민영),강북구 수유동 469-17,NP,49,2000,60,,,,0,,0000 ~ 2400,0000 ~ 2400,0000 ~ 2400,010-8531-5483,미연계,37.632678,127.013172
인수봉로-1,인수봉로 164 ~ 인수봉로52길 2,T,14,0,0,0,0,0,0,,0000 ~ 0000,0000 ~ 0000,0000 ~ 0000,,미연계,37.6349372,127.0134102
인수봉로-2,인수봉로 191 ~ 인수봉로 159,T,22,0,0,0,0,0,0,,0000 ~ 0000,0000 ~ 0000,0000 ~ 0000,,미연계,37.6355116,127.0130848
진관동주민센터,은평구 진관동 78-0 ,BS,18,0,0,0,0,0,0,,1800 ~ 0800,0000 ~ 2400,0000 ~ 2400,02-351-5454,미연계,37.634923640554874,126.92107388919399
중부지구관리소(태릉),노원구 공릉동 223-19 ,BP,33,,,,,,0,,0800 ~ 1800,0800 ~ 1800,0800 ~ 1800,02-948-5668,미연계,37.6301315,127.0975666
한국원자력의학원,노원구 공릉동 215-4 ,BP,800,500,10,500,10,0,0,,0000 ~ 2400,0000 ~ 2400,0000 ~ 2400,02-970-2734,미연계,37.62884,127.082477
LG전자베스트샵 노원본점,노원구 공릉동 323-1 ,BS,25,1000,10,1000,10,30000,25,2024-10-02 15:58:48,0000 ~ 2400,0000 ~ 2400,0000 ~ 2400,,20분,37.628515,127.071146
희성프라자,노원구 월계동 321-2 ,BS,113,500,10,500,10,30000,18,2024-10-02 15:59:31,0000 ~ 2400,0000 ~ 2400,0000 ~ 2400,,20분,37.63091732,127.06104087
한천로-1,한천로105길 23 ~ 오현로 208,T,128,0,0,0,0,0,0,,0000 ~ 0000,0000 ~ 0000,0000 ~ 0000,,미연계,37.6286311,127.0443653
한천로-2,한천로109길 10 ~ 한천로109길 23,T,78,0,0,0,0,0,0,,0000 ~ 0000,0000 ~ 0000,0000 ~ 0000,,미연계,37.62838098,127.04434717
미아동공영주차장(구),강북구 미아동 222-100,NW,155,150,5,150,5,10000,6,2024-10-02 15:58:30,0000 ~ 2400,0000 ~ 2400,0000 ~ 2400,02-944-3048,20분,37.6285679,127.02235964
수유마을시장 공영주차장(구),강북구 수유동 55-53,NW,116,100,5,100,5,10000,0,2024-09-14 15:25:41,0000 ~ 2400,0000 ~ 2400,0000 ~ 2400,02-944-3053,미연계,37.63066419,127.02184586
수유시장주차장(민영),강북구 수유동 54-5,NP,61,100,5,100,5,,0,,0800 ~ 2200,0800 ~ 2200,0800 ~ 2200,02-989-4730,미연계,37.630747,127.023003
수유프라자,강북구 수유동 63-0,BS,51,1000,30,1000,30,30000,51,2024-10-02 15:58:40,0000 ~ 2400,0000 ~ 2400,0000 ~ 2400,,20분,37.631703,127.02348
쌈지유료주차장(구),강북구 수유동 62-4,NW,19,1000,20,500,10,,0,,0000 ~ 2400,0000 ~ 2400,0000 ~ 2400,010-2977-0759,미연계,37.632025,127.023552
우리은행 미아역지점,강북구 미아동 207-1 ,BS,18,1000,20,1000,20,30000,18,2024-10-02 15:58:43,0000 ~ 2400,0000 ~ 2400,0000 ~ 2400,,20분,37.62777652,127.02513238
수유일공원공영주차장(구),강북구 수유동 605-407,NW,91,200,5,200,5,10000,46,2024-10-02 15:59:21,0000 ~ 2400,0000 ~ 2400,0000 ~ 2400,02-944-3042,20분,37.63061186,127.01743071
은혜공영주차장(무인)(구),강북구 미아동 791-1049,NW,20,150,5,150,5,10000,0,,0000 ~ 2400,0000 ~ 2400,0000 ~ 2400,,미연계,37.62796164,127.01699947
신도고등학교 주차장,은평구 진관동 243-1 ,BS,10,0,0,0,0,0,0,,0700 ~ 2200,0800 ~ 1800,0000 ~ 0000,02-350-3104,미연계,37.6292,126.918477
마들로-2,마들로 111 ~ 마들로 111,T,38,0,0,0,0,0,0,,0000 ~ 0000,0000 ~ 0000,0000 ~ 0000,,미연계,37.62493104,127.06760371
광운대역 주차장,노원구 월계동 85-4 ,BP,78,1800,30,600,10,10000,0,,0000 ~ 2400,0000 ~ 2400,0000 ~ 2400,02-707-5422,미연계,37.6243435,127.0609236
이마트월계점,노원구 월계동 333-1 ,BS,1006,500,10,500,10,30000,516,2024-10-02 15:59:31,1000 ~ 2300,1000 ~ 2300,1000 ~ 2300,,20분,37.62745359,127.06201533
노원자동차(민영),노원구 월계동 367-1,NP,18,2000,60,1000,30,,0,,0000 ~ 2400,0000 ~ 2400,0000 ~ 2400,02-905-7959,미연계,37.626432,127.060216
번2동 공영주차장(무인)(구),강북구 번동 148-140,NW,20,0,0,0,0,0,0,,0000 ~ 0000,0000 ~ 0000,0000 ~ 0000,02)944-3025,미연계,37.62683533,127.03675529
번동 햇살 주차장(구),강북구 번동 148-380,NW,187,150,5,150,5,10000,100,2024-10-02 15:59:11,0000 ~ 2400,0000 ~ 2400,0000 ~ 2400,02-944-3044,20분,37.62509512,127.03343189
강북구청별관,강북구 미아동 197-1 ,BP,37,0,30,250,5,0,0,,0900 ~ 1800,0000 ~ 0000,0000 ~ 0000,,미연계,37.6270682,127.02699279
대양주차장(민영),강북구 미아동 207-3,NP,15,1000,30,1000,10,15000,0,,0700 ~ 2200,0700 ~ 2200,0700 ~ 2200,011-328-7170,미연계,37.627132,127.025475
큰마을길(구),강북구 미아동 309-14,NS,42,200,5,200,5,10000,0,,0900 ~ 1900,0900 ~ 1500,0000 ~ 0000,02-944-3025,미연계,37.62355035,127.02502385
냉천길 공영주차장(구),강북구 미아동 756-1,NW,103,200,5,200,5,10000,57,2024-10-02 15:59:03,0000 ~ 2400,0000 ~ 2400,0000 ~ 2400,02-944-3040,20분,37.62400561,127.01953853
롯데마트 삼양점,강북구 미아동 1359-0 ,BS,233,1500,30,1500,30,30000,203,2024-10-02 15:58:47,0000 ~ 2400,0000 ~ 2400,0000 ~ 2400,,20분,37.62561503,127.01770989
삼양시장길 공영주차장(구),강북구 미아동 791-1429,NW,43,150,5,150,5,10000,0,,0000 ~ 2400,0000 ~ 2400,0000 ~ 2400,02-944-3025,미연계,37.6259019,127.01577535
구세군길 공영주차장(무인)(구),강북구 미아동 791-1360,NW,87,150,5,150,5,10000,44,2024-10-02 15:59:37,0000 ~ 2400,0000 ~ 2400,0000 ~ 2400,02-944-3036,20분,37.62617605,127.01344244
미향주차장(민영),강북구 미아동 791-1539,NP,7,1000,30,,,,0,,0000 ~ 2400,0000 ~ 2400,0000 ~ 2400,,미연계,37.62527704,127.01347121
삼양주차장(민영),강북구 미아동 791-1743,NP,11,0,0,0,0,0,0,,0000 ~ 0000,0000 ~ 0000,0000 ~ 0000,02-980-6797,미연계,37.62527464,127.01327361
청암공영주차장(무인)(구),강북구 미아동 791-1694,NW,47,0,0,0,0,0,0,,0000 ~ 0000,0000 ~ 0000,0000 ~ 0000,02-무인,미연계,37.62472117,127.01538636
서부침례교회 주차장,은평구 진관동 152-0 ,BS,6,0,0,0,0,0,0,,0200 ~ 2200,0600 ~ 2200,0600 ~ 2200,02-354-3331,미연계,37.627359,126.937205
연신내(민영),은평구 불광동 81-8,NP,16,1000,30,1000,30,,0,,0000 ~ 0000,0000 ~ 0000,0000 ~ 0000,02-353-3217,미연계,37.62653949,126.92763281
새장골공영주차장(구),은평구 불광동 480-352,NW,40,100,5,100,5,,0,,0000 ~ 2400,0000 ~ 2400,0000 ~ 2400,02-355-5947,미연계,37.62446275,126.9235464
연광초교지하공동주차장(구),은평구 불광동 400-6,NW,152,100,5,100,5,0,0,,0000 ~ 2400,0000 ~ 2400,0000 ~ 2400,010-9554-9016,미연계,37.62387156,126.92422148
연신중학교지하공동주차장(구),은평구 불광동 400-4,NW,137,100,5,100,5,,0,,0000 ~ 2400,0000 ~ 2400,0000 ~ 2400,,미연계,37.6232864,126.92508572
갈현1동공영주차장(구),은평구 갈현동 9-112,NW,61,100,5,100,5,0,0,,0000 ~ 2400,0000 ~ 2400,0000 ~ 2400,02-357-5947,미연계,37.62648828,126.91533796
갈현1동문화의집,은평구 갈현동 436-14,BS,6,,,,,,0,,0000 ~ 2400,0000 ~ 2400,0000 ~ 2400,02-351-5097,미연계,37.6237,126.916779
갈현주차장(민영),은평구 갈현동 391-21,NP,10,1500,30,500,10,0,0,,0000 ~ 2400,0000 ~ 2400,0000 ~ 2400,,미연계,37.62530217,126.91941375
갈현1동 주민센터,,DI,1,0,0,0,0,0,0,,0000 ~ 0000,0000 ~ 0000,0000 ~ 0000,,미연계,37.62364847,126.916814
(구)북부지법주변(구),노원구 공릉동 629-1,NS,11,250,5,0,0,33000,0,,0900 ~ 1900,0900 ~ 1800,0900 ~ 1800,,미연계,37.61976955,127.07735364
화인화물주차장(민영),노원구 공릉동 573-14,NP,8,3000,60,1000,30,,0,,0000 ~ 2400,0000 ~ 2400,0000 ~ 2400,02-1599-9924,미연계,37.620974,127.072679
공릉동도깨비-1,동일로 1022 ~ 동일로 1028,T,12,0,0,0,0,0,0,,0000 ~ 0000,0000 ~ 0000,0000 ~ 0000,,미연계,37.6220064,127.0744231
마들로-1,마들로 59 ~ 마들로 59,T,24,0,0,0,0,0,0,,0000 ~ 0000,0000 ~ 0000,0000 ~ 0000,,미연계,37.6205488,127.0695697
오케이파킹(굿랜드)(민영),노원구 월계동 411-34,NP,39,1000,30,1000,30,15000,0,,0000 ~ 2400,0000 ~ 2400,0000 ~ 2400,01046422780,미연계,37.621573,127.061682
서울중앙교회,노원구 월계동 382-33 ,BS,15,,,,,,0,,1700 ~ 0900,1700 ~ 0900,0000 ~ 0000,,미연계,37.62278,127.0578
한천로-4,한천로 747 ~ 한천로 735,T,28,0,0,0,0,0,0,,0000 ~ 0000,0000 ~ 0000,0000 ~ 0000,,미연계,37.6227623,127.0509031
꿈의숲요양병원,강북구 번동 105-1,BS,73,0,20,500,10,20000,73,2024-10-02 15:58:48,0000 ~ 2400,0000 ~ 2400,0000 ~ 2400,,20분,37.620514,127.044938
북서울꿈의숲,강북구 번동 28-6 ,BP,402,300,10,300,10,,0,,0000 ~ 2400,0000 ~ 2400,0000 ~ 2400,02-2289-4022,미연계,37.621314,127.04511
북서울꿈의숲 서문주차장,강북구 번동 28-4 ,BP,74,300,10,300,10,,0,,0000 ~ 2400,0000 ~ 2400,0000 ~ 2400,02-2289-5416,미연계,37.621841,127.037928
교육청길(구),강북구 미아동 137-19,NS,94,200,5,200,5,10000,0,,0900 ~ 1900,0900 ~ 1500,0000 ~ 0000,02-944-3025,미연계,37.62272619,127.02864695
도봉세무서 주차장,강북구 미아동 327-5 ,BP,67,,,,,,0,,1900 ~ 0730,1400 ~ 2400,0000 ~ 2400,02-944-0246,미연계,37.619783,127.02841
오패산공영주차장(구),강북구 미아동 133-100,NW,76,150,5,150,5,10000,32,2024-10-02 15:59:45,0000 ~ 2400,0000 ~ 2400,0000 ~ 2400,,20분,37.6221541,127.03114725
솔샘로-3,솔샘로 309 ~ 솔샘로 267,T,57,0,0,0,0,0,0,,0000 ~ 0000,0000 ~ 0000,0000 ~ 0000,,미연계,37.6187316,127.0236323
솔샘로-4,솔샘로 270 ~ 솔샘로 294,T,37,0,0,0,0,0,0,,0000 ~ 0000,0000 ~ 0000,0000 ~ 0000,,미연계,37.6190148,127.02227201
대지시장길 공영주차장(구),강북구 미아동 703-8,NW,47,200,5,200,5,,46,2024-10-02 15:59:34,0000 ~ 2400,0000 ~ 2400,0000 ~ 2400,02-944-3035,20분,37.62016376,127.02031635
동북주차장 상가전용주차장(민영),강북구 미아동 1346-1,NP,10,1500,30,1500,30,,0,,0000 ~ 2400,0000 ~ 2400,0000 ~ 2400,010-3760-2625,미연계,37.619669,127.019624
삼양마을공원지하공영주차장(구),강북구 미아동 748-2,NW,95,200,5,200,5,10000,51,2024-10-02 15:59:14,0000 ~ 2400,0000 ~ 2400,0000 ~ 2400,02-944-3047,20분,37.62274538,127.01842794
현대셀프(민영),강북구 미아동 691-1,NP,26,1500,30,500,10,15000,0,,0000 ~ 2400,0000 ~ 2400,0000 ~ 2400,02-989-4554,미연계,37.619285,127.020366
솔샘로-1,솔샘로 247 ~ 솔샘로 221,T,37,0,0,0,0,0,0,,0000 ~ 0000,0000 ~ 0000,0000 ~ 0000,,미연계,37.6198116,127.0201105
솔샘로-2,솔샘로 220 ~ 솔샘로 246,T,42,0,0,0,0,0,0,,0000 ~ 0000,0000 ~ 0000,0000 ~ 0000,,미연계,37.6199363,127.01705501
수양(민영),은평구 불광동 13-5,NP,18,3000,30,1000,10,0,0,,1000 ~ 2000,1000 ~ 2000,1000 ~ 2000,02-353-2198,미연계,37.61922235,126.93276121
보건분소,은평구 불광동 130-2 ,BP,11,0,0,0,0,0,0,,0000 ~ 0000,0000 ~ 0000,0000 ~ 0000,,미연계,37.62153281,126.9277144
은평구립도서관 주차장,은평구 불광동 59-32,BS,34,0,0,0,0,0,0,,0900 ~ 2200,0000 ~ 0000,0000 ~ 0000,02-385-1671,미연계,37.61896,126.927983
Y타운 주차장,은평구 갈현동 396-12,BS,44,4000,60,4000,60,0,0,,0000 ~ 0000,0000 ~ 0000,0000 ~ 0000,,미연계,37.61906209,126.9202517
남재빌딩 주차장,은평구 불광동 353-66,BS,28,2000,30,2000,30,0,0,,0900 ~ 2300,0900 ~ 2300,0900 ~ 2300,02--,미연계,37.62033916,126.92500491
범일빌딩 주차장,은평구 갈현동 396-1 ,BS,92,2000,30,2000,30,0,0,,0800 ~ 2000,0800 ~ 1500,0000 ~ 0000,,미연계,37.61987377,126.92016139
서연빌딩 주차장,은평구 갈현동 395-5,BS,25,1000,15,1000,15,0,0,,0700 ~ 2100,0700 ~ 1500,0000 ~ 0000,,미연계,37.62038474,126.91985083
은평문화주차장(민영),은평구 불광동 310-290,NP,17,1500,30,500,10,15000,0,,0000 ~ 0000,0000 ~ 0000,0000 ~ 0000,02-385-0111,미연계,37.61996556,126.92210941
회원빌딩 주차장,은평구 갈현동 396-9,BS,44,2000,30,2000,30,0,0,,0000 ~ 0000,0000 ~ 0000,0000 ~ 0000,,미연계,37.61974349,126.91993613
연서-1,연서로 261-1 ~ 연서로 257,T,14,0,0,0,0,0,0,,0000 ~ 0000,0000 ~ 0000,0000 ~ 0000,,미연계,37.6202285,126.92378501
갈현교회 주차장,은평구 갈현동 427-25 ,BS,10,0,0,0,0,0,0,,0000 ~ 0000,0000 ~ 0000,0000 ~ 0000,02-358-1554,미연계,37.622165,126.917085
경산빌딩 주차장,은평구 갈현동 393-1,BS,35,3000,30,1000,10,0,0,,0800 ~ 2400,0800 ~ 2400,0800 ~ 2400,,미연계,37.62308921,126.91944319
대영(민영),은평구 갈현동 395-8,NP,34,2000,30,2000,30,15000,0,,0100 ~ 2359,0100 ~ 2359,0100 ~ 2359,,미연계,37.62003275,126.91975308
청구성심병원외래(민영),은평구 갈현동 404-29,NP,36,1000,20,1000,20,,0,,0000 ~ 2400,0000 ~ 2400,0000 ~ 2400,02-385-4221,미연계,37.621063,126.91891
봉수대공영주차장(구),중랑구 신내동 12-2,NW,31,150,5,150,5,3000,0,,0800 ~ 1700,0000 ~ 0000,0000 ~ 0000,02-438-8271,미연계,37.61638404,127.11230008
아마노코리아 신내점 주차장,중랑구 신내동 813-0 ,BS,37,1000,30,1000,30,15000,0,2023-07-26 16:27:38,0000 ~ 2400,0000 ~ 2400,0000 ~ 2400,,미연계,37.617626,127.104549
봉화산역(남) 공영주차장(시),중랑구 신내동 647-0,NW,85,80,5,80,5,5700,0,,0900 ~ 2200,0900 ~ 2200,0900 ~ 2200,010-4927-3981,미연계,37.61642995,127.09197194
홈플러스 신내점,중랑구 신내동 645-0,BS,393,1000,10,1000,10,30000,373,2024-10-02 16:00:04,1000 ~ 2400,1000 ~ 2400,1000 ~ 2400,02-2024-8000,20분,37.615743,127.093825
신내로-2,신내로15길 196 ~ 신내로21길 6,T,28,0,0,0,0,0,0,,0000 ~ 0000,0000 ~ 0000,0000 ~ 0000,,미연계,37.6179846,127.0896096
원묵 고등학교 공용 지하주차장(구),중랑구 묵동 23-0,NW,107,50,5,50,5,0,0,,0000 ~ 0000,0000 ~ 0000,0000 ~ 0000,,미연계,37.61542338,127.08604938
숙선옹주로 5공영(구),중랑구 묵동 113-3,NS,7,0,0,0,0,0,0,,0000 ~ 0000,0000 ~ 0000,0000 ~ 0000,,미연계,37.61465437,127.08050868
묵중안공영주차장(구),중랑구 묵동 250-39,NS,194,250,5,250,5,0,0,,0900 ~ 1900,0900 ~ 1500,0000 ~ 0000,,미연계,37.61465158,127.07522907
방병원,노원구 공릉동 680-10 ,BS,45,3000,30,1000,10,,0,,0800 ~ 2200,0800 ~ 2200,0900 ~ 2200,,미연계,37.61842153,127.07502927
석계역 공영주차장(시),노원구 월계동 50-9,NW,70,260,5,260,5,18700,53,2024-10-02 15:59:31,0000 ~ 2400,0000 ~ 2400,0000 ~ 2400,010-4927-3981,20분,37.615292,127.062997
석계역앞(구),노원구 월계동 60-1,NW,29,100,5,100,5,,0,,0900 ~ 1900,0900 ~ 1900,0000 ~ 0000,02-942-8882,미연계,37.615724,127.065186
장위1동동방고개공영주차장(구),성북구 장위동 230-110,NW,66,150,5,150,5,10000,0,,0000 ~ 2400,0000 ~ 2400,0000 ~ 2400,02-6925-0023,미연계,37.61468,127.041019
어울림소공원 공영주차장(구),강북구 미아동 4-1,NW,45,200,5,200,5,10000,0,,0000 ~ 2400,0000 ~ 2400,0000 ~ 2400,02-944-3025,미연계,37.616735,127.035341
LG전자베스트샵 강북본점,강북구 미아동 330-15,BS,34,0,10,2000,10,30000,34,2024-10-02 15:58:56,0000 ~ 2400,0000 ~ 2400,0000 ~ 2400,,20분,37.618662,127.028891
도봉로 15길 공영주차장(시),강북구 미아동 458-7,NS,16,200,5,200,5,0,14,2024-10-02 15:59:44,0900 ~ 1800,0000 ~ 0000,0000 ~ 0000,010-4927-3981,20분,37.61695866,127.0279473
솔샘빌딩 주차장,강북구 미아동 65-5,BS,28,2000,30,5000,60,0,0,,0000 ~ 2400,0000 ~ 2400,0000 ~ 2400,,미연계,37.61687,127.028684
송중동 주민센터,강북구 미아동 138-11 ,BS,6,0,0,0,0,0,0,,0000 ~ 0000,0000 ~ 0000,0000 ~ 0000,,미연계,37.618317,127.02998
한마음빌딩 주차장,강북구 미아동 73-9,BS,56,1000,30,1000,10,50000,0,,0700 ~ 2300,0700 ~ 2300,0700 ~ 2300,,미연계,37.614866,127.031039
솔샘주차장(민영),강북구 미아동 682-11,NP,15,1000,30,500,10,,0,,0000 ~ 2400,0000 ~ 2400,0000 ~ 2400,011-9018-7946,미연계,37.61843719,127.0216378
송천동공영주차장(구),강북구 미아동 439-138,NW,59,150,5,150,5,10000,25,2024-10-02 15:59:22,0000 ~ 2400,0000 ~ 2400,0000 ~ 2400,02-944-3049,20분,37.61458475,127.0251644
영신주차장(민영),강북구 미아동 473-161,NP,11,0,0,0,0,0,0,,0000 ~ 0000,0000 ~ 0000,0000 ~ 0000,02-989-6862,미연계,37.61516134,127.02636937
삼양로-5,삼양로27길 19 ~ 삼양로27길 19,T,34,0,0,0,0,0,0,,0000 ~ 0000,0000 ~ 0000,0000 ~ 0000,,미연계,37.6180384,127.0213615
삼양로-6,삼양로24길 19 ~ 삼양로 156,T,22,0,0,0,0,0,0,,0000 ~ 0000,0000 ~ 0000,0000 ~ 0000,,미연계,37.6169623,127.0219814
보국문로,보국문로 190 ~ 보국문로 212-1,T,14,0,0,0,0,0,0,,0000 ~ 0000,0000 ~ 0000,0000 ~ 0000,,미연계,37.61789435522193,126.99904005417782
불광미성아파트 주차장,은평구 불광동 248-0 ,BS,790,0,0,0,0,0,0,,0000 ~ 0000,0000 ~ 0000,0000 ~ 0000,02-303-8570,미연계,37.614924,126.928377
OK주차장(민영),은평구 대조동 185-18,NP,18,0,0,0,0,0,0,,0000 ~ 0000,0000 ~ 0000,0000 ~ 0000,,미연계,37.61808976,126.92116395
대조(민영),은평구 대조동 198-23,NP,10,2000,30,2000,30,10000,0,,0000 ~ 2400,0000 ~ 2400,0000 ~ 2400,02-356-2277,미연계,37.61750359,126.9201953
선교중앙교회,은평구 대조동 215-37 ,BS,7,0,0,0,0,0,0,,0500 ~ 2200,0500 ~ 2200,0500 ~ 2200,02-385-0353,미연계,37.614417,126.920452
갈현2동주민센터,은평구 갈현동 502-3 ,BS,4,,,,,,0,,0900 ~ 1800,0900 ~ 1800,0900 ~ 1800,02-351-5124,미연계,37.618605,126.915851
한솔아파트 주차장,은평구 갈현동 539-0 ,BS,5,0,0,0,0,0,0,,0000 ~ 2400,0000 ~ 2400,0000 ~ 2400,02-353-3415,미연계,37.617993,126.910051
구산동 마을공원 지하공동주차장(구),은평구 구산동 340-1,NW,77,100,5,,,,0,,0000 ~ 2400,0000 ~ 2400,0000 ~ 2400,02-1588-5783,미연계,37.61473937,126.9084649
서오릉로-2,서오릉로 244 ~ 서오릉로 256,T,10,0,0,0,0,0,0,,0000 ~ 0000,0000 ~ 0000,0000 ~ 0000,,미연계,37.6164127,126.9076886
서목주차(민영),중랑구 망우동 333-0,NP,35,0,,0,0,0,0,,0000 ~ 0000,0000 ~ 0000,0000 ~ 0000,,미연계,37.61229478,127.10167814
서울의료원 주차장,중랑구 신내동 316-0 ,BP,806,0,20,300,10,,764,2024-10-02 16:00:02,0000 ~ 2400,0000 ~ 2400,0000 ~ 2400,02-2276-8990,20분,37.612879,127.099193
신내로-1,신내로 127 ~ 신내로 131,T,17,0,0,0,0,0,0,,0000 ~ 0000,0000 ~ 0000,0000 ~ 0000,,미연계,37.6110784,127.0960814
묵1동주민센터,중랑구 묵동 174-3,BS,4,,,,,,0,,1800 ~ 0800,0000 ~ 2400,0000 ~ 2400,02-2094-6400,미연계,37.612419,127.07855
이마트 묵동점,중랑구 묵동 170-1 ,BS,648,1000,10,1000,10,30000,0,,1000 ~ 2200,1000 ~ 2200,1000 ~ 2200,,미연계,37.613801,127.077555
석관동주민센터,성북구 석관동 384-3,BS,4,,,,,,0,,0900 ~ 1800,0000 ~ 2400,0000 ~ 2400,02-2241-5764,미연계,37.613066,127.061475
성호(민영),성북구 석관동 384-1,NP,6,0,0,0,0,0,0,,0000 ~ 0000,0000 ~ 0000,0000 ~ 0000,,미연계,37.613181,127.061874
돌곶이시장-1,한천로 565 ~ 한천로 555,T,17,0,0,0,0,0,0,,0000 ~ 0000,0000 ~ 0000,0000 ~ 0000,,미연계,37.6103295,127.0630869
한천로-3,한천로 536 ~ 한천로 562,T,35,0,0,0,0,0,0,,0000 ~ 0000,0000 ~ 0000,0000 ~ 0000,,미연계,37.6097549,127.0639394
장위전통시장 공영주차장(구),성북구 장위동 68-130,NW,18,150,5,150,5,10000,0,,0000 ~ 2400,0000 ~ 2400,0000 ~ 2400,02-6925-0023,미연계,37.61025825,127.04986039
송중동 공영주차장(구),강북구 미아동 48-1,NW,53,200,5,200,5,10000,51,2024-10-02 15:59:56,0000 ~ 2400,0000 ~ 2400,0000 ~ 2400,02-944-3038,20분,37.61165492,127.03363616
송중동(임시)공영주차장(민영),강북구 미아동 860-123,NP,6,200,5,200,5,,0,,0000 ~ 2400,0000 ~ 2400,0000 ~ 2400,02-988-1283,미연계,37.611054,127.033507
대광주차장(민영),강북구 미아동 58-2,NP,11,1500,30,500,10,,0,,0000 ~ 2400,0000 ~ 2400,0000 ~ 2400,02-982-7585,미연계,37.61263054,127.0296034
대성주차장(민영),강북구 미아동 42-9,NP,25,2000,30,1000,30,15000,0,,0000 ~ 2400,0000 ~ 2400,0000 ~ 2400,017-202-5267,미연계,37.610177,127.030625
롯데백화점[미아점] 지하주차장,강북구 미아동 70-6 ,BS,485,0,30,1000,10,,221,2024-10-02 16:00:00,0800 ~ 2200,0800 ~ 2200,0800 ~ 2200,02-944-1862,20분,37.61417653,127.03055539
숭인주차장(민영),강북구 미아동 60-11,NP,38,1500,30,1500,30,,0,,0000 ~ 2400,0000 ~ 2400,0000 ~ 2400,02-985-1909,미연계,37.61377455,127.02902508
신세계 이마트미아점,성북구 길음동 25-2 ,BS,83,1000,10,1000,10,50000,110,2024-10-02 16:00:17,0700 ~ 2300,0700 ~ 2300,0700 ~ 2300,,20분,37.61086046,127.02974197
삼양로-2,삼양로 104 ~ 삼양로 110,T,7,0,0,0,0,0,0,,0000 ~ 0000,0000 ~ 0000,0000 ~ 0000,,미연계,37.6132006,127.0222159
국민대앞북악주차(구),성북구 정릉동 880-1 ,NS,50,150,5,300,10,10000,0,,0000 ~ 2400,0000 ~ 2400,0000 ~ 2400,,미연계,37.610135,126.994251
평창동(구),종로구 평창동 114-3,NS,10,150,5,150,5,0,0,,1000 ~ 2000,1000 ~ 2000,1000 ~ 2000,02-2236-0052,미연계,37.61150895,126.97722881
평창동 460-3(구),종로구 평창동 460-3,NS,9,150,5,150,5,0,0,,1000 ~ 2200,1000 ~ 2200,1000 ~ 2200,02-2236-0052,미연계,37.61064386,126.97507868
너른(구.대륜)(민영),종로구 구기동 146-1,NP,205,1000,30,1000,30,6000,0,,0800 ~ 2000,0800 ~ 2000,0800 ~ 2000,,미연계,37.611392,126.957214
비봉(구),종로구 구기동 139-9,NW,40,150,5,150,5,0,0,,0800 ~ 1800,0800 ~ 1800,0800 ~ 1800,02-391-4272,미연계,37.61218,126.956556
진흥로-2,녹번동 산 1-55 ~ 녹번동 산 1-50,T,57,0,0,0,0,0,0,,0000 ~ 0000,0000 ~ 0000,0000 ~ 0000,,미연계,37.61035101,126.9424088
불광1동주민센터,은평구 불광동 613-1,BS,6,,,,,,0,,0900 ~ 2100,0000 ~ 0000,0000 ~ 0000,02-351-5032,미연계,37.610326,126.932073
한국여성정책연구원,은평구 불광동 1-363,BS,20,,,,,,0,,0000 ~ 0000,0900 ~ 1800,0900 ~ 1800,02-3156-7221,미연계,37.610583,126.935067
(주)필파킹(민영),은평구 대조동 2-46,NP,68,2000,30,1000,15,0,0,,0000 ~ 2400,0000 ~ 2400,0000 ~ 2400,02-357-0117,미연계,37.61375214,126.92650016
동아(민영),은평구 대조동 2-7,NP,18,3000,60,1000,10,0,0,,0800 ~ 2100,0800 ~ 2100,0800 ~ 2100,02-383-4300,미연계,37.61234033,126.92803583
불광(민영),은평구 대조동 14-8,NP,24,2000,30,500,10,0,0,,0000 ~ 2400,0000 ~ 2400,0000 ~ 2400,02-382-0355,미연계,37.61017259,126.92965101
오산 주차장,은평구 대조동 6-9 ,BS,30,1500,30,1500,30,0,0,,0000 ~ 0000,0000 ~ 0000,0000 ~ 0000,,미연계,37.6112204,126.92865826
은광교회 주차장,은평구 불광동 264-4 ,BS,8,0,0,0,0,0,0,,0500 ~ 2000,0700 ~ 2000,0700 ~ 2000,02-383-2111,미연계,37.612398,126.928997
한화생명 불광동사옥,은평구 불광동 272-51 ,BS,217,1500,30,500,10,0,117,2024-10-02 15:59:50,0000 ~ 2400,0000 ~ 2400,0000 ~ 2400,02-359-1134,20분,37.611843,126.92932
대조-1,불광로 17 ~ 진흥로 133,T,52,0,0,0,0,0,0,,0000 ~ 0000,0000 ~ 0000,0000 ~ 0000,,미연계,37.60979501,126.9278445
녹원(민영),은평구 대조동 88-34,NP,33,1500,30,500,10,0,0,,0000 ~ 2400,0000 ~ 2400,0000 ~ 2400,02-387-8282,미연계,37.61020053,126.92391037
신성(민영),은평구 역촌동 1-32,NP,16,1500,30,500,10,0,0,,0000 ~ 2400,0000 ~ 2400,0000 ~ 2400,,미연계,37.61047108,126.91745158
영진빌딩 주차장,은평구 구산동 1-1,BS,26,1500,30,1500,30,20000,0,,0900 ~ 2400,0900 ~ 2400,0900 ~ 2400,,미연계,37.61117419,126.91680129
구산동주민센터,은평구 구산동 27-5 ,BS,4,,,,,,0,,0000 ~ 2400,0000 ~ 2400,0000 ~ 2400,02-351-5154,미연계,37.611802,126.910381
은빛주택 2호점,은평구 구산동 210-14 ,BS,7,0,0,0,0,0,0,,0000 ~ 0000,0000 ~ 0000,0000 ~ 0000,,미연계,37.613099,126.910744
서오릉로-3,서오릉로 180 ~ 서오릉로 188,T,14,0,0,0,0,0,0,,0000 ~ 0000,0000 ~ 0000,0000 ~ 0000,,미연계,37.6134702,126.9128649
구산동 주민센터,,DI,1,0,0,0,0,0,0,,0000 ~ 0000,0000 ~ 0000,0000 ~ 0000,,미연계,37.61158137,126.9103106
삼부그린스포츠센터 주차장,중랑구 신내동 387-1,BS,116,1000,30,1000,30,0,0,,0000 ~ 2400,0000 ~ 2400,0000 ~ 2400,02-493-3333,미연계,37.60700803,127.10048198
삼부그린스포츠센터(민영),중랑구 신내동 387-2,NP,67,0,10,1000,30,10000,0,,0000 ~ 0000,0000 ~ 0000,0000 ~ 0000,02-493-3333,미연계,37.6070269,127.09992515
신내제1동주민센터,중랑구 신내동 448-1,BS,10,,,,,,0,,2130 ~ 0700,0000 ~ 2400,0000 ~ 2400,02-2094-6573,미연계,37.605897,127.09952
신아타운 주차장,중랑구 신내동 666-0,BS,212,1000,30,1000,30,20000,0,,0000 ~ 2400,0000 ~ 2400,0000 ~ 2400,,미연계,37.60642221,127.09471324
장연 주차장(민영),중랑구 신내동 395-14,NP,36,0,,0,0,0,0,,0000 ~ 0000,0000 ~ 0000,0000 ~ 0000,02-207-8810,미연계,37.6078217,127.09923856
중랑구청,중랑구 신내동 662-0,BS,245,,,,,,0,,1800 ~ 0900,0000 ~ 2400,0000 ~ 2400,02-2094-0327,미연계,37.60652566243834,127.09282875896416
공유) 화랑마을 공영(구),중랑구 묵동 122-9178,NW,4,600,60,300,30,,0,,0900 ~ 1800,0000 ~ 0000,0000 ~ 0000,02-1661-5806,미연계,37.608739,127.080165
한국예술종합학교,성북구 석관동 333-343 ,BS,367,0,0,0,0,0,0,,0000 ~ 2400,0000 ~ 2400,0000 ~ 2400,02-746-9145,미연계,37.60646283255878,127.05695655914539
벤처빌딩 공영주차장,성북구 장위동 65-154,BS,56,150,5,150,5,10000,0,,0000 ~ 2400,0000 ~ 2400,0000 ~ 2400,,미연계,37.609389,127.053229
화랑로-1,화랑로 188 ~ 화랑로 192,T,14,0,0,0,0,0,0,,0000 ~ 0000,0000 ~ 0000,0000 ~ 0000,,미연계,37.60758301,127.0511146
덕신빌딩 제1주차장,강북구 미아동 42-11,BS,23,1000,20,,,15000,0,,0000 ~ 2400,0000 ~ 2400,0000 ~ 2400,,미연계,37.609583,127.03064
베누스타 주차장,성북구 길음동 22-1 ,BS,50,2000,30,500,10,0,50,2024-10-02 16:00:00,0000 ~ 2400,0000 ~ 2400,0000 ~ 2400,,20분,37.60933538,127.02949836
성북힐스테이트 주차장,성북구 하월곡동 88-64 ,BS,70,0,10,500,10,25000,70,2024-10-02 16:00:06,0000 ~ 2400,0000 ~ 2400,0000 ~ 2400,,20분,37.606535,127.030397
성북힐스테이트아파트,성북구 하월곡동 88-957,BS,75,0,10,500,10,25000,75,2024-10-02 16:00:06,0000 ~ 2400,0000 ~ 2400,0000 ~ 2400,,20분,37.606548,127.029027
현대백화점 미아점 주차장,성북구 길음동 20-1 ,BS,600,0,30,500,10,,168,2024-10-02 16:00:26,0800 ~ 2200,0000 ~ 0000,0000 ~ 0000,02-2117-3155,20분,37.60838767,127.02877104
현대백화점 별관주차장(민영),성북구 하월곡동 88-198,NP,375,2000,30,1000,10,0,0,,0800 ~ 2100,0800 ~ 2200,0800 ~ 2200,,미연계,37.607487,127.0298022
JR메디컬센터타워 주차장,성북구 정릉동 408-3 ,BS,32,2000,30,1000,10,30000,29,2024-10-02 16:00:00,0000 ~ 2400,0000 ~ 2400,0000 ~ 2400,02-942-6780,20분,37.60736694,127.01009949
정릉동주차장(민영),성북구 정릉동 408-13,NP,15,1500,30,500,10,8000,0,,0000 ~ 2400,0000 ~ 2400,0000 ~ 2400,02-6123-4224,미연계,37.607141,127.010324
정릉시장공영주차장(구),성북구 정릉동 405-4,NW,20,150,5,150,5,10000,0,,0000 ~ 2400,0000 ~ 2400,0000 ~ 2400,02-6925-0023,미연계,37.608225,127.009444
"보국문로11길,솔샘로6길-1",보국문로11길 26 ~ 솔샘로6길 41,T,27,0,0,0,0,0,0,,0000 ~ 0000,0000 ~ 0000,0000 ~ 0000,,미연계,37.6087265,127.0086647
서울기록원 부설주차장,은평구 녹번동 7-1 ,BP,86,250,5,250,5,24000,16,2024-10-02 16:00:05,0000 ~ 2400,0000 ~ 2400,0000 ~ 2400,02-1522-0741,20분,37.607239,126.934435
역전주차장(민영),은평구 불광동 285-21,NP,7,2000,30,1000,15,40000,0,,0000 ~ 2400,0000 ~ 2400,0000 ~ 2400,02-359-2839,미연계,37.60953076,126.93153384
오산주차장(민영),은평구 녹번동 117-141,NP,20,2000,30,2000,30,20000,0,,0800 ~ 2200,0800 ~ 2200,0800 ~ 2200,02-387-4742,미연계,37.60812152,126.93135688
한국전력공사 서대문은평지사,은평구 녹번동 28-62,BS,10,,,,,,0,,0900 ~ 1800,0000 ~ 0000,0000 ~ 0000,02-350-2213,미연계,37.605313,126.933718
NC백화점 불광점 주차장,은평구 대조동 240-0 ,BS,851,0,0,1000,30,0,0,,1000 ~ 2300,1100 ~ 2300,1100 ~ 2300,02-350-9520,미연계,37.60972464,126.92892309
진흥로-1,진흥로 176 ~ 진흥로 188,T,15,0,0,0,0,0,0,,0000 ~ 0000,0000 ~ 0000,0000 ~ 0000,,미연계,37.6083106,126.9290098
선진 주차장,은평구 역촌동 14-7,BS,17,2000,30,2000,10,0,0,,0000 ~ 0000,0000 ~ 0000,0000 ~ 0000,,미연계,37.60827689,126.92061495
은평평생학습관 주차장,은평구 역촌동 14-34 ,BS,12,1000,20,1000,20,0,0,,0900 ~ 2100,0900 ~ 1800,0000 ~ 0000,,미연계,37.60779419,126.92121012
은평평화공원(구),은평구 녹번동 153-1,NW,143,150,5,150,5,0,0,,0000 ~ 2400,0000 ~ 2400,0000 ~ 2400,02-350-5183,미연계,37.60573659,126.92310827
역말 공영주차장(구),은평구 역촌동 12-42,NW,47,0,0,0,0,0,0,,0000 ~ 0000,0000 ~ 0000,0000 ~ 0000,02-350-5183,미연계,37.607564,126.916549
영빌딩 부설주차장,은평구 구산동 21-62 ,BS,4,0,0,0,0,0,0,,0000 ~ 0000,0000 ~ 0000,0000 ~ 0000,010-2436-7778,미연계,37.608114,126.915159
주영주차장(민영),은평구 역촌동 6-23,NP,20,,,0,0,0,0,,0000 ~ 0000,0000 ~ 0000,0000 ~ 0000,,미연계,37.60885173,126.91710742
대명프라자,중랑구 신내동 502-5,BS,40,1500,30,1500,30,30000,40,2024-10-02 16:00:06,0000 ~ 2400,0000 ~ 2400,0000 ~ 2400,010-8705-5638,20분,37.601777,127.096903
기아오토큐중화점(민영),중랑구 중화동 116-0,NP,15,1000,10,1000,10,20000,0,,0000 ~ 0000,0000 ~ 0000,0000 ~ 0000,02-433-8506,미연계,37.6015885,127.08338208
국일 주차장(민영),중랑구 중화동 304-2,NP,45,1500,30,500,10,15000,0,,0000 ~ 0000,0000 ~ 0000,0000 ~ 0000,02-439-8829,미연계,37.6012552,127.07845612
나들목공영주차장(구),중랑구 중화동 304-36,NS,117,250,5,250,5,0,0,,0900 ~ 1900,0900 ~ 1500,0000 ~ 0000,02-438-7210,미연계,37.60116658,127.07777779
중화(민영),중랑구 중화동 99-4,NP,18,2000,30,500,10,10000,0,,0000 ~ 0000,0000 ~ 0000,0000 ~ 0000,02-2209-7146,미연계,37.60202972,127.08276022
중화1동공영주차장(구),중랑구 중화동 29-2,NW,130,100,5,100,5,,0,,0000 ~ 2400,0000 ~ 2400,0000 ~ 2400,02-438-7489,미연계,37.60270927,127.08165711
중화제1동주민센터,중랑구 중화동 287-3,BS,6,,,,,,0,,0000 ~ 2400,0000 ~ 2400,0000 ~ 2400,02-2094-6349,미연계,37.601136,127.080658
신호등 주차장(민영),중랑구 중화동 311-60,NP,11,1500,30,1500,30,10000,0,,0000 ~ 0000,0000 ~ 0000,0000 ~ 0000,02-2209-1997,미연계,37.60237159,127.07658629
중화2동 66구간A(구),중랑구 중화동 50-16,NS,4,0,0,0,0,0,0,,0000 ~ 0000,0000 ~ 0000,0000 ~ 0000,,미연계,37.601369,127.0741148
삼거리주차장(민영),동대문구 이문동 256-358,NP,11,1000,30,1000,30,5000,0,,0800 ~ 2359,0800 ~ 2359,0000 ~ 0000,02-969-4443,미연계,37.60321817,127.06241643
이문2동주민센터,동대문구 이문동 237-1 ,BP,2,,,,,,0,,1800 ~ 0800,0000 ~ 2400,0000 ~ 2400,02-2171-6503,미연계,37.603329,127.065027
중부지구관리소(의릉),성북구 석관동 409-0,BS,36,0,0,0,0,0,0,,0000 ~ 2400,0000 ~ 2400,0000 ~ 2400,02-964-0579,미연계,37.60453,127.055895
홈플러스 월곡점,성북구 하월곡동 46-73 ,BS,658,1000,10,1000,10,30000,424,2024-10-02 16:00:39,1000 ~ 2400,1000 ~ 2400,1000 ~ 2400,02-3669-8000,20분,37.601636,127.040355
종암우림카이저팰리스 주차장,성북구 종암동 132-0 ,BS,294,500,10,500,10,20000,0,2023-07-26 16:27:37,0000 ~ 2400,0000 ~ 2400,0000 ~ 2400,,미연계,37.6019306,127.0335014
안산부인과,성북구 길음동 531-33,BS,11,2000,30,1000,30,20000,0,,0800 ~ 2000,0800 ~ 2000,0000 ~ 0000,,미연계,37.604321,127.0244
태창빌딩,성북구 길음동 1070-24,BS,30,,,1500,30,,0,,0800 ~ 2200,0800 ~ 2200,0800 ~ 2200,,미연계,37.605033,127.025476
정릉 반석빌 전용 주차장,성북구 정릉동 485-5,BS,8,0,0,0,0,0,0,,0000 ~ 0000,0000 ~ 0000,0000 ~ 0000,,미연계,37.602686,127.011575
중부지구관리소(정릉),성북구 정릉동 508-0,BS,9,,,,,,0,,0000 ~ 2400,0000 ~ 2400,0000 ~ 2400,02-914-5133,미연계,37.601213,127.006826
홍은1동 제4공영주차장(구),서대문구 홍은동 11-23,NW,105,250,5,250,5,,0,,0800 ~ 2000,0800 ~ 2000,0800 ~ 2000,,미연계,37.601417,126.94895
녹번종합사회복지관,은평구 녹번동 28-6,BS,6,,,,,,0,,1800 ~ 0800,0000 ~ 2400,0000 ~ 2400,02-388-6341,미연계,37.60278,126.931836
은평구청 부설주차장,은평구 녹번동 84-0,BS,73,250,5,0,0,0,0,,0000 ~ 2400,0000 ~ 2400,0000 ~ 2400,02--,미연계,37.602704,126.928926
은평세무서,은평구 응암동 84-5,BS,8,,,,,,0,,1800 ~ 0800,0000 ~ 2400,0000 ~ 2400,02-2132-9243,미연계,37.601869,126.926453
평암빌딩 주차장,은평구 녹번동 185-0 ,BS,22,0,0,0,0,0,0,,0700 ~ 2200,0700 ~ 2200,0000 ~ 0000,,미연계,37.6019576,126.92825752
은평구청,,DI,5,0,0,0,0,0,0,,0000 ~ 0000,0000 ~ 0000,0000 ~ 0000,,미연계,37.60256074,126.9291461
LG전자베스트샵 은평점,은평구 응암동 86-25,BS,9,2000,30,1000,15,40000,9,2024-10-02 16:00:10,0000 ~ 2400,0000 ~ 2400,0000 ~ 2400,02--,20분,37.601228,126.924603
원 주차장(민영),은평구 응암동 87-38,NP,30,1000,30,0,0,0,0,,0000 ~ 0000,0000 ~ 0000,0000 ~ 0000,,미연계,37.60106858,126.9232504
이마트 은평점[은평이마트점],은평구 응암동 89-21 ,BS,598,1000,10,1000,10,,224,2024-10-02 16:00:42,1000 ~ 2300,1000 ~ 2300,1000 ~ 2300,,20분,37.60079507,126.92066234
진흥로 공영주차장(시),은평구 역촌동 41-8,NS,14,200,5,200,5,,9,2024-10-02 16:00:21,0900 ~ 1800,0000 ~ 0000,0000 ~ 0000,010-9381-8004,20분,37.60431077,126.92167204
응암로-1,응암로 369-1 ~ 응암로 345,T,37,0,0,0,0,0,0,,0000 ~ 0000,0000 ~ 0000,0000 ~ 0000,,미연계,37.6042792,126.9225372
상운주차장(민영),은평구 역촌동 33-43,NP,10,2000,30,500,10,,0,,0900 ~ 1800,0900 ~ 1800,0900 ~ 1800,,미연계,37.60327756,126.9180372
은평구청소면문화의집 신나는애프터센터,은평구 역촌동 23-22,BS,4,,,,,,0,,2100 ~ 0830,1000 ~ 1800,1000 ~ 1800,02-353-7910,미연계,37.604381,126.916649
러스크서울병원[망우동 4호점],중랑구 망우동 207-2 ,BS,89,2000,30,2000,30,30000,25,2024-10-02 16:00:48,0000 ~ 2400,0000 ~ 2400,0000 ~ 2400,02-1588-5783,20분,37.600071,127.104311
망우본동복합청사,중랑구 망우동 340-17 ,BS,22,,,,,,0,,0900 ~ 1800,0000 ~ 0000,0000 ~ 0000,02-2094-6492,미연계,37.60052701470895,127.10141350923234
공유) 용마산로524 공영(구),중랑구 망우동 466-9009,NW,4,600,60,300,30,,0,,0900 ~ 1800,0000 ~ 0000,0000 ~ 0000,02-1661-5806,미연계,37.597816,127.100005
기성빌딩 주차장,중랑구 망우동 470-11,BS,36,1000,30,1000,30,0,0,,0000 ~ 2400,0000 ~ 2400,0000 ~ 0000,,미연계,37.59910159,127.09790302
다이소 망우2호점,중랑구 망우동 470-14,BS,13,1500,30,1500,30,15000,13,2024-10-02 15:59:59,0000 ~ 2400,0000 ~ 2400,0000 ~ 2400,,20분,37.599122,127.098381
대흥빌딩 주차장,중랑구 망우동 487-2,BS,14,1000,30,500,10,0,0,,0000 ~ 2400,0000 ~ 2400,0000 ~ 0000,,미연계,37.60006988,127.10005272
동국 노외 주차장(민영),중랑구 망우동 490-4,NP,9,0,,0,0,10000,0,,0000 ~ 0000,0000 ~ 0000,0000 ~ 0000,02-433-3132,미연계,37.59840933,127.095677
동부갯 공영주차장(구),중랑구 망우동 487-1,NS,72,250,5,250,5,0,0,,0900 ~ 1900,0900 ~ 1500,0000 ~ 0000,02-438-7209,미연계,37.60035143,127.09971002
맛솜씨공영주차장(구),중랑구 망우동 490-21,NS,69,250,5,250,5,0,0,,0900 ~ 1900,0900 ~ 1500,0000 ~ 0000,,미연계,37.59856872,127.09734995
성아빌딩 주차장,중랑구 망우동 489-28,BS,1017,2000,30,2000,30,20000,0,,0900 ~ 1800,0700 ~ 1700,0800 ~ 1200,,미연계,37.59918718,127.09607338
용마프라자(상가.아파트),중랑구 망우동 572-0 ,BS,81,1500,30,500,10,0,0,,0900 ~ 1900,0900 ~ 1700,0000 ~ 0000,02-491-6474,미연계,37.59634965,127.09891968
우림시장 고객 주차장(민영),중랑구 망우동 463-44,NP,9,1500,30,1000,20,0,0,,0900 ~ 1900,0900 ~ 1700,0000 ~ 0000,02-436-3598,미연계,37.5966823,127.09825983
우림시장공영주차장(구),중랑구 망우동 486-10,NS,55,250,5,250,5,0,0,,0900 ~ 1900,0900 ~ 1500,0000 ~ 0000,02-436-3598,미연계,37.59917651,127.1001267
원동빌딩 주차장,중랑구 망우동 470-18,BS,19,500,10,500,10,0,0,,0800 ~ 2000,0800 ~ 2000,0000 ~ 0000,,미연계,37.59926742,127.09899268
아주 주차장(민영),중랑구 망우동 508-2,NP,17,2000,30,500,10,0,0,,0500 ~ 2200,0500 ~ 2200,0500 ~ 2200,02-495-0034,미연계,37.59713634,127.0943736
이마트 상봉점,중랑구 망우동 506-1 ,BS,579,1000,10,1000,10,20000,2,2024-10-02 16:00:46,1000 ~ 2300,1000 ~ 2300,1000 ~ 2300,,20분,37.59643854,127.09351851
코스트코 상봉점,중랑구 상봉동 81-0 ,BS,628,,,,,,0,,1000 ~ 2200,1000 ~ 2200,1000 ~ 2200,,미연계,37.5967991,127.0902943
한국철도공사 수도권동부본부(망우역),중랑구 상봉동 172-0,BP,200,,,,,13000,0,,0000 ~ 2400,0000 ~ 2400,0000 ~ 2400,02-707-5422,미연계,37.59932440381255,127.09295003701251
홈플러스 서울상봉점,중랑구 상봉동 500-0 ,BS,2090,500,10,0,0,30000,0,,0000 ~ 2400,0000 ~ 2400,0000 ~ 2400,,미연계,37.5977681,127.0898255
상봉유료주차장(민영),중랑구 상봉동 91-4,NP,96,1500,30,0,0,15000,0,,0000 ~ 0000,0000 ~ 0000,0000 ~ 0000,02-434-0649,미연계,37.59670688,127.08840101
파리유료주차장(민영),중랑구 중화동 296-82,NP,6,1500,30,500,10,0,0,,0700 ~ 2359,0700 ~ 2359,0700 ~ 2359,010-4011-6190,미연계,37.59754137,127.07918511
중화2동 66구간B(구),중랑구 중화동 50-17,NS,4,0,0,0,0,0,0,,0000 ~ 0000,0000 ~ 0000,0000 ~ 0000,,미연계,37.6000934,127.0735427
태능주차장(민영),중랑구 중화동 317-2,NP,21,1500,,500,10,10000,0,,0000 ~ 0000,0000 ~ 0000,0000 ~ 0000,017-207-7211,미연계,37.5985115,127.07585861
공유) 중화2동 11구간(구),중랑구 중화동 61-4,NS,4,600,60,300,30,0,0,,0900 ~ 1800,0000 ~ 0000,0000 ~ 0000,02-1661-5806,미연계,37.596838,127.071059
이경시장 공영주차장(구),동대문구 이문동 86-52,NS,27,500,10,500,10,36000,0,,0900 ~ 1900,0900 ~ 1500,0000 ~ 0000,010-2214-4934,미연계,37.59637086,127.06571003
이문1동주민센터,동대문구 이문동 120-1 ,BP,6,,,,,,0,,0900 ~ 1800,0000 ~ 0000,0000 ~ 0000,02-2171-6462,미연계,37.597812,127.065499
제일 주차장(민영),동대문구 이문동 296-3,NP,10,1500,60,500,10,0,0,,0000 ~ 2400,0000 ~ 2400,0000 ~ 2400,,미연계,37.59686906,127.06244475
성북문화재단 시네마부설주차장,성북구 돈암동 538-59 ,BS,100,300,10,300,10,0,0,,0000 ~ 2400,0000 ~ 2400,0000 ~ 2400,02-6906-9264,미연계,37.599141586312484,127.01480323479247
응암교회 주차장,은평구 응암동 68-1 ,BS,100,0,0,0,0,0,0,,0000 ~ 2400,0000 ~ 2400,0000 ~ 2400,02-389-4651,미연계,37.599903,126.930117
동아빌딩 주차장,은평구 응암동 91-5,BS,13,2000,30,1000,15,0,0,,1000 ~ 2200,1000 ~ 2200,1000 ~ 2200,,미연계,37.5997939,126.91813765
미성 프라임팰리스 주차장,은평구 응암동 111-48,BS,59,1000,30,500,10,0,0,,0700 ~ 2100,0700 ~ 2100,0000 ~ 0000,,미연계,37.59943728,126.91846296
송원하이본오피스텔 주차장,은평구 응암동 111-1,BS,51,1000,30,500,10,0,0,,0600 ~ 2400,0600 ~ 2400,0000 ~ 0000,,미연계,37.59946292,126.91881225
응암(민영),은평구 응암동 117-24,NP,26,1500,30,500,10,0,0,,0000 ~ 2400,0000 ~ 2400,0000 ~ 2400,010-3012-7839,미연계,37.59658197,126.91914242
은평로-1,은평로 59 ~ 은평로 43,T,22,0,0,0,0,0,0,,0000 ~ 0000,0000 ~ 0000,0000 ~ 0000,,미연계,37.5988803,126.9142385
은평로-2,은평로 42 ~ 은평로 60,T,25,0,0,0,0,0,0,,0000 ~ 0000,0000 ~ 0000,0000 ~ 0000,,미연계,37.5986641,126.9142138
증산로-2,증산로 451 ~ 증산로 457,T,10,0,0,0,0,0,0,,0000 ~ 0000,0000 ~ 0000,0000 ~ 0000,,미연계,37.5966299,126.9149132
신사1동주민센터,은평구 신사동 29-2,BS,7,,,,,,0,,0800 ~ 1900,0800 ~ 1900,0800 ~ 1900,02-351-5332,미연계,37.597848,126.911844
한성(민영),은평구 신사동 21-14,NP,21,1500,30,1500,30,15000,0,,0800 ~ 2130,0820 ~ 2130,0820 ~ 2130,02-303-5080,미연계,37.59826833,126.91268031
대성 주차장(민영),중랑구 망우동 411-28,NP,10,1500,30,500,10,15000,0,,0000 ~ 0000,0000 ~ 0000,0000 ~ 0000,02-432-7776,미연계,37.59309593,127.09944483
면일초등학교,중랑구 망우동 440-0 ,BS,125,100,5,100,5,,0,2021-08-18 15:16:39,0000 ~ 2400,0000 ~ 2400,0000 ~ 2400,,미연계,37.59198909,127.09939707
매화공영주차장(구),중랑구 상봉동 85-41,NS,28,250,5,250,5,0,0,,0900 ~ 1900,0900 ~ 1500,0000 ~ 0000,02-438-7210,미연계,37.59508539,127.08934487
상봉복개(구),중랑구 상봉동 399-4,NS,62,400,5,400,5,0,0,2024-02-20 18:29:06,0900 ~ 1900,0900 ~ 1500,0000 ~ 0000,02-2272-8821,미연계,37.59599094,127.09015825
창원주차장/김장중(민영),중랑구 망우동 515-44,NP,31,,,1000,20,,0,,0700 ~ 2200,0700 ~ 2200,0000 ~ 0000,010-8371-4600,미연계,37.59470048,127.09445802
상봉로-1,상봉로 58 ~ 상봉로 88,T,44,0,0,0,0,0,0,,0000 ~ 0000,0000 ~ 0000,0000 ~ 0000,,미연계,37.5922307,127.0935565
상봉로-2,상봉로 85 ~ 상봉로 57,T,44,0,0,0,0,0,0,,0000 ~ 0000,0000 ~ 0000,0000 ~ 0000,,미연계,37.59181675,127.09330781
상봉2동공영주차장(구),중랑구 상봉동 110-38,NW,83,100,5,100,5,0,0,,0000 ~ 2400,0000 ~ 2400,0000 ~ 2400,02-1577-3325,미연계,37.59305102,127.08421599
봉우재로-1,봉우재로 115 ~ 봉우재로 73,T,55,0,0,0,0,0,0,,0000 ~ 0000,0000 ~ 0000,0000 ~ 0000,,미연계,37.5921567,127.0833967
봉우재로-2,봉우재로 76 ~ 봉우재로 114,T,55,0,0,0,0,0,0,,0000 ~ 0000,0000 ~ 0000,0000 ~ 0000,,미연계,37.5924145,127.0857006
동부(민영),중랑구 상봉동 129-6,NP,12,1500,30,1500,30,0,0,,0000 ~ 0000,0000 ~ 0000,0000 ~ 0000,02-439-6233,미연계,37.59334648,127.07870091
상봉2동 복합청사,중랑구 상봉동 126-0 ,BP,18,0,0,0,0,0,0,,0900 ~ 1800,0900 ~ 1700,0000 ~ 0000,02-2094-6294,미연계,37.592985,127.080844
세명(민영),중랑구 상봉동 125-14,NP,7,1000,,1000,30,0,0,,0000 ~ 0000,0000 ~ 0000,0000 ~ 0000,02-432-8950,미연계,37.59217436,127.08302439
주막거리공영주차장(구),중랑구 상봉동 127-19,NS,26,250,5,250,5,0,0,,0900 ~ 1900,0900 ~ 1500,0000 ~ 0000,02-438-7210,미연계,37.59397692,127.07776258
중랑역사주차장(민영),중랑구 중화동 73-6,NP,212,1000,30,1000,30,10000,0,,0000 ~ 2400,0900 ~ 2359,0000 ~ 2400,02-491-7796,미연계,37.59525436,127.07836748
공유) 중화2동 21구간(구),중랑구 중화동 73-8,NS,4,600,60,300,30,0,0,,0900 ~ 1800,0000 ~ 0000,0000 ~ 0000,02-1661-5806,미연계,37.594147,127.072229
중화동(구),중랑구 중화동 61-2,NS,11,100,5,100,5,0,0,,0900 ~ 1900,0900 ~ 1500,0000 ~ 0000,,미연계,37.59463678,127.07225899
휘경메디컬프라자,동대문구 휘경동 71-1,BS,109,2000,30,1000,15,40000,109,2024-10-02 16:00:07,0000 ~ 2400,0000 ~ 2400,0000 ~ 2400,,20분,37.59178,127.066602
휘경로-1,휘경로 73 ~ 휘경로 45,T,42,0,0,0,0,0,0,,0000 ~ 0000,0000 ~ 0000,0000 ~ 0000,,미연계,37.5942278,127.0667756
휘경로-2,휘경동 372-1 ~ 휘경동 372-2,T,42,0,0,0,0,0,0,,0000 ~ 0000,0000 ~ 0000,0000 ~ 0000,,미연계,37.5940701,127.0667613
삼성주차장(민영),동대문구 이문동 305-2,NP,12,500,10,500,10,,0,,0000 ~ 2400,0000 ~ 2400,0000 ~ 2400,,미연계,37.59601463,127.06175295
외대역주차빌딩 공영(구),동대문구 이문동 306-14,NW,84,500,10,500,10,,0,,0000 ~ 2400,0000 ~ 2400,0000 ~ 2400,,미연계,37.595004,127.062613
휘경1동주민센터,동대문구 휘경동 373-0 ,BP,9,,,,,,0,,0900 ~ 1800,0000 ~ 0000,0000 ~ 0000,02-2171-6422,미연계,37.592906,127.0657386
회기동 공영주차장(구),동대문구 회기동 1-1,NW,100,1000,60,0,0,10000,0,,0900 ~ 1900,0900 ~ 1900,0900 ~ 1900,02-2247-9664~6,미연계,37.59208429,127.0554514
경희대학교,동대문구 이문동 1-3 ,BS,2600,1500,30,500,10,0,0,,0000 ~ 2400,0000 ~ 2400,0000 ~ 2400,,미연계,37.59624022,127.054885
동대문구 회기동 12-1(민영),동대문구 회기동 12-1,NP,20,1500,30,1500,30,15000,0,,0900 ~ 2100,0900 ~ 2100,0900 ~ 2100,,미연계,37.59211498,127.05343693
국민은행 주차장,성북구 동선동1가 117-0,BS,30,1000,30,1000,30,,0,,0800 ~ 2000,0000 ~ 0000,0000 ~ 0000,,미연계,37.593034,127.017702
대은빌딩 주차장,성북구 동선동1가 122-0,BS,39,1500,30,1500,30,,0,,0800 ~ 2400,0800 ~ 2400,0800 ~ 2400,,미연계,37.593804,127.019405
동선동주민센터,성북구 동선동3가 130-7,BS,4,,,,,,0,,0000 ~ 2400,0000 ~ 2400,0000 ~ 2400,02-2241-5084,미연계,37.593988,127.020425
태극당,성북구 동선동1가 118-1 ,BS,16,1500,30,,,,0,,0800 ~ 2000,0800 ~ 1600,0000 ~ 0000,,미연계,37.593496,127.018435
태극당주차장(민영),성북구 동선동1가 119-10,NP,15,2000,30,1000,15,0,0,,0000 ~ 0000,0000 ~ 0000,0000 ~ 0000,,미연계,37.593604,127.018655
서울북부청소년비행예방센터,성북구 동소문동4가 256-0,BS,4,,,,,,0,,0000 ~ 0000,0000 ~ 2400,0000 ~ 2400,02-927-8566,미연계,37.591788,127.012437
공유) 성북구 도담도담 주차장(구),성북구 성북동 232-13,NW,7,1200,60,600,30,,0,2024-10-02 14:30:50,0000 ~ 2359,0000 ~ 2359,0000 ~ 2359,02-1661-5806,2시간,37.594584,126.993775
공유) 성북구 복사골 주차장(구),성북구 성북동 230-1,NW,10,1200,60,600,30,0,0,2024-09-24 12:32:45,0000 ~ 2359,0000 ~ 2359,0000 ~ 2359,02-1661-5806,미연계,37.594806,126.993478
공유) 성북구 심우장 주차장(구),성북구 성북동 241-5,NW,11,1200,60,600,30,0,0,2024-09-24 12:29:41,0000 ~ 2359,0000 ~ 2359,0000 ~ 2359,02-1661-5806,미연계,37.594546,126.994284
성북도원,성북구 성북동 226-58 ,BS,3,0,0,0,0,0,0,,0000 ~ 0000,0000 ~ 0000,0000 ~ 0000,02-2241-3661,미연계,37.59281022388594,126.9883656262536
창의문로 관광버스 주차허용 구간(시),종로구 청운동 15-57 (벽산빌리지 9동 앞 ~ 청운중학교 100m 앞),NS,33,0,0,0,0,0,0,,0000 ~ 0000,0000 ~ 0000,0000 ~ 0000,02-2133-2357,미연계,37.59208084,126.96775448
부암유료주차장(민영),종로구 부암동 278-1,NP,12,2000,30,,,,0,,0000 ~ 0000,0000 ~ 0000,0000 ~ 0000,,미연계,37.592997,126.963731
석파정서울미술관,종로구 부암동 202-4 ,BS,62,1000,10,1000,10,,0,,1100 ~ 1810,1100 ~ 1810,1100 ~ 1810,,미연계,37.594706,126.963189
홍제3동주민센터,서대문구 홍제동 7-13 ,BP,8,,,,,,0,,0900 ~ 2200,0000 ~ 0000,0000 ~ 0000,02-330-8428,미연계,37.593758,126.949777
유진상가/인왕시장 앞(구),서대문구 홍제동 294-46 ,NS,33,250,5,250,5,,0,,1000 ~ 1900,1000 ~ 1500,0000 ~ 0000,,미연계,37.591776,126.944276
은평병원 주차장,은평구 응암동 232-3,BS,155,1000,30,500,10,12000,0,,0000 ~ 2400,0000 ~ 2400,0000 ~ 2400,,미연계,37.59391591,126.9237126
응암2동주민센터,은평구 응암동 229-13,BS,2,,,,,,0,,0000 ~ 2400,0000 ~ 2400,0000 ~ 2400,02-351-5244,미연계,37.59453,126.923164
한성교회 부설주차장,은평구 응암동 240-36 ,BS,26,0,0,0,0,0,0,,0900 ~ 2200,0900 ~ 2200,0900 ~ 2200,02-385-0351,미연계,37.592719,126.920764
신응암-1,응암로 22길 25 ~ 응암로22길 3-1,T,40,0,0,0,0,0,0,,0000 ~ 0000,0000 ~ 0000,0000 ~ 0000,,미연계,37.59356101,126.9206676
신응암-2,응암로22길 8 ~ 응암로22길 22-1,T,23,0,0,0,0,0,0,,0000 ~ 0000,0000 ~ 0000,0000 ~ 0000,,미연계,37.5934497,126.9205961
민영주차장(민영),은평구 응암동 579-26,NP,9,2000,30,1000,30,0,0,,0000 ~ 0000,0000 ~ 0000,0000 ~ 0000,010-6632-2884,미연계,37.59390551,126.91531164
응암3동 공동주차장(구),은평구 응암동 580-4,NW,160,100,5,100,5,,0,,0000 ~ 2400,0000 ~ 2400,0000 ~ 2400,02-350-5188,미연계,37.59345156,126.91539487
증산로-1,증산로 425 ~ 증산로 417,T,9,0,0,0,0,0,0,,0000 ~ 0000,0000 ~ 0000,0000 ~ 0000,,미연계,37.5943366,126.9142943
합동(민영),은평구 신사동 36-3,NP,9,1000,30,500,10,0,0,,0800 ~ 2200,1100 ~ 0000,2200 ~ 0000,02-309-9519,미연계,37.59363451,126.91312961
서신초교지하공용 주차장,은평구 신사동 194-0 ,BS,157,100,5,100,5,,0,,0000 ~ 2400,0000 ~ 2400,0000 ~ 2400,02-350-5155,미연계,37.59236436,126.9074961
늘봄주차장(구),중랑구 면목동 22-12,NW,72,100,5,100,5,0,0,,0000 ~ 2400,0000 ~ 2400,0000 ~ 2400,02-437-1987,미연계,37.58985533,127.09643555
우리(민영),중랑구 면목동 42-58,NP,44,1500,30,500,10,15000,0,,0000 ~ 0000,0000 ~ 0000,0000 ~ 0000,02-2209-6320,미연계,37.58836607,127.09529213
동원시장공영주차장(구),중랑구 면목동 74-33,NW,26,100,5,100,5,0,0,,0000 ~ 2400,0000 ~ 2400,0000 ~ 2400,,미연계,37.58987969,127.09314874
양지주차장(민영),중랑구 면목동 103-6,NP,14,2000,60,1000,30,,0,,1000 ~ 2000,0000 ~ 0000,0000 ~ 0000,,미연계,37.58915543,127.08995153
엠에스빌딩,중랑구 면목동 72-1 ,BS,27,1500,30,500,10,0,0,2023-07-28 08:39:55,0000 ~ 2400,0000 ~ 2400,0000 ~ 2400,,미연계,37.58947197,127.09344319
동원골목-1,겸재로 229 ~ 겸재로 217,T,17,0,0,0,0,0,0,,0000 ~ 0000,0000 ~ 0000,0000 ~ 0000,,미연계,37.5894506,127.0918938
동원골목-2,겸재로 218 ~ 겸재로 226-3,T,17,0,0,0,0,0,0,,0000 ~ 0000,0000 ~ 0000,0000 ~ 0000,,미연계,37.5894988,127.0930767
동원 유료주차장(민영),중랑구 면목동 121-24,NP,20,1500,30,1500,30,10000,0,,0800 ~ 2100,0800 ~ 1700,0800 ~ 1700,010-9279-9216,미연계,37.58928793,127.08797894
면목천로 거주자우선주차장A(구),중랑구 면목동 1503-6,NS,5,0,0,0,0,0,0,,0000 ~ 0000,0000 ~ 0000,0000 ~ 0000,,미연계,37.5912632,127.0857185
면목천로 거주자우선주차장B(구),중랑구 면목동 1505-5,NS,5,0,0,0,0,0,0,,0000 ~ 0000,0000 ~ 0000,0000 ~ 0000,,미연계,37.5902916,127.0851481
면목천로 거주자우선주차장C(구),중랑구 면목동 1503-6,NS,5,0,0,0,0,0,0,,0000 ~ 0000,0000 ~ 0000,0000 ~ 0000,,미연계,37.5903172,127.0852752
면목천로 거주자우선주차장D(구),중랑구 면목동 1505-5,NS,5,0,0,0,0,0,0,,0000 ~ 0000,0000 ~ 0000,0000 ~ 0000,,미연계,37.5899249,127.0850297
모두모아주차장 / 김수용(민영),중랑구 면목동 102-29,NP,12,1500,30,1500,30,,0,,0900 ~ 2100,0900 ~ 2100,0900 ~ 2100,010-2369-6633,미연계,37.58891221,127.08851745
면목2동 주차장(민영),중랑구 면목동 183-14,NP,142,1500,30,500,10,10000,0,,0000 ~ 2400,0000 ~ 2400,0000 ~ 2400,02-491-3820,미연계,37.59142425,127.07822786
면목2동공영주차장(구),중랑구 면목동 146-1,NW,199,100,5,100,5,0,0,,0000 ~ 2400,0000 ~ 2400,0000 ~ 2400,080-490-3894,미연계,37.58795027,127.08085785
면목2동주민센터,중랑구 면목동 180-8,BS,6,,,,,,0,,0900 ~ 1800,0900 ~ 1800,0900 ~ 1800,02-2094-6053,미연계,37.589712,127.079041
중랑동부시장(구),중랑구 면목동 183-14,NW,129,100,5,,,,0,,0000 ~ 2400,0000 ~ 2400,0000 ~ 2400,02-1577-3325,미연계,37.591406,127.07823
봉우재로-3,봉우재로 59 ~ 봉우재로 49,T,14,0,0,0,0,0,0,,0000 ~ 0000,0000 ~ 0000,0000 ~ 0000,,미연계,37.5911296,127.0792399
공유) 면목2동 10구간(25~27)(구),중랑구 면목동 294-30,NS,3,600,60,300,30,0,0,,0900 ~ 1800,0000 ~ 0000,0000 ~ 0000,02-1661-5806,미연계,37.58818,127.074854
공유) 면목2동 10구간(59~61)(구),중랑구 면목동 294-10,NS,3,600,60,300,30,0,0,,0900 ~ 1800,0000 ~ 0000,0000 ~ 0000,02-1661-5806,미연계,37.58856,127.075969
면목초교주자창(구),중랑구 면목동 192-1,NW,82,100,5,100,5,,0,,0000 ~ 2400,0000 ~ 2400,0000 ~ 2400,,미연계,37.58919215,127.07579481
동부골목-1,봉우재로 37 ~ 봉우재로 31,T,10,0,0,0,0,0,0,,0000 ~ 0000,0000 ~ 0000,0000 ~ 0000,,미연계,37.5904771,127.0772896
견인보관소(구),동대문구 휘경동 361-0,NW,40,500,10,500,10,0,0,,0000 ~ 2400,0000 ~ 2400,0000 ~ 2400,02-2247-9666,미연계,37.58901132,127.0691229
휘경2동주민센터,동대문구 휘경동 367-1 ,BP,9,,,,,,0,,0900 ~ 1800,0000 ~ 2400,0000 ~ 2400,02-2171-6443,미연계,37.590095,127.068585
휘경유수지 공영주차장(구),동대문구 휘경동 348-0,NW,55,500,10,500,10,0,0,,0000 ~ 2400,0000 ~ 2400,0000 ~ 2400,,미연계,37.58908686,127.06977384
휘경유수지(구),동대문구 휘경동 7-18,NW,55,500,10,,,,0,,0900 ~ 1900,0900 ~ 1500,0000 ~ 0000,,미연계,37.58988,127.069266
JS빌딩 주차장,동대문구 휘경동 42-23 ,BS,24,1500,30,500,10,20000,24,2024-10-02 16:00:01,0000 ~ 2400,0000 ~ 2400,0000 ~ 2400,,20분,37.59098817,127.06438783
회기역 주변 노상공영주차장(구),동대문구 휘경동 255-3,NS,122,500,10,500,10,,0,,0900 ~ 1900,0900 ~ 1500,0000 ~ 0000,,미연계,37.590434,127.062013
회기역주변 공영주차장(구),동대문구 휘경동 255-3,NS,122,500,10,500,10,36000,0,,0900 ~ 1900,0900 ~ 1500,0000 ~ 0000,02-2247-9664~6,미연계,37.59043209,127.06209346
 프리미어m회기 오피스텔,동대문구 휘경동 266-6,BS,102,500,10,500,10,30000,0,,0000 ~ 2400,0000 ~ 2400,0000 ~ 2400,,미연계,37.589956,127.059485
경일빌딩 주차장,동대문구 휘경동 267-106 경인빌딩,BS,24,3000,30,1000,10,0,0,,0700 ~ 1900,0700 ~ 1900,0000 ~ 0000,,미연계,37.58933994,127.05834502
민간 유료주차장(민영),동대문구 휘경동 317-60,NP,8,2000,30,3000,60,10000,0,,0800 ~ 2400,0800 ~ 2400,0800 ~ 2400,01091930614,미연계,37.588264,127.056805
춘태타운,동대문구 휘경동 192-5,BS,47,1000,60,1000,60,,0,,0000 ~ 2400,0000 ~ 2400,0000 ~ 2400,,미연계,37.590623,127.060202
회기동주민센터,동대문구 회기동 347-8 ,BP,3,,,,,,0,,1800 ~ 0800,0000 ~ 2400,0000 ~ 2400,02-2171-6402,미연계,37.590787,127.055186
휘경마을 공영주차장(구),동대문구 휘경동 308-32,NW,78,1000,60,0,0,10000,0,,0900 ~ 1900,0900 ~ 1900,0900 ~ 1900,02-2247-9664~6,미연계,37.5880691,127.05809327
중부지구관리소(영휘원),동대문구 청량리동 204-2 ,BP,23,,,,,,0,,0800 ~ 1800,0800 ~ 1800,0800 ~ 1800,02-962-0556,미연계,37.5882232,127.0432009
회기로-2,회기로 30 ~ 회기로 48,T,27,0,0,0,0,0,0,,0000 ~ 0000,0000 ~ 0000,0000 ~ 0000,,미연계,37.5912171,127.0415619
개운사 주차장,성북구 안암동5가 156-0,BS,120,1000,10,3000,60,20000,0,,0700 ~ 2300,0700 ~ 2300,0700 ~ 2300,,미연계,37.589303,127.0287
돈암골(민영),성북구 동소문동5가 118-0,NP,8,1500,30,0,0,20000,0,,0600 ~ 2300,0600 ~ 2300,0600 ~ 2300,,미연계,37.591173,127.016175
성북구청 주차장,성북구 삼선동5가 411-0 ,BS,168,1000,30,500,10,,0,,0600 ~ 2300,0600 ~ 2300,0600 ~ 2300,02-2241-4304,미연계,37.589454,127.016867
성신주차장(민영),성북구 동선동2가 134-0,NP,15,2000,30,1000,15,0,0,,0800 ~ 2200,0900 ~ 2200,0000 ~ 0000,,미연계,37.590824,127.018974
윤홍빌딩 주차장,성북구 삼선동5가 334-0,BS,44,2000,30,700,10,,0,,0100 ~ 2400,0100 ~ 2400,0100 ~ 2400,,미연계,37.588474,127.017725
돈암동일하이빌 주차장,성북구 동소문동5가 120-0 ,BS,123,2000,30,2000,30,0,123,2024-10-02 16:01:15,0000 ~ 2400,0000 ~ 2400,0000 ~ 2400,,20분,37.59164441,127.01442238
동도빌딩 주차장,성북구 동소문동3가 63-0,BS,36,1000,30,500,10,,0,,0800 ~ 2000,0800 ~ 2000,0800 ~ 2000,,미연계,37.590282,127.011044
삼선교(민영),성북구 삼선동4가 18-6,NP,28,2000,30,1000,15,15000,0,,0000 ~ 2400,0000 ~ 2400,0000 ~ 2400,,미연계,37.58869814,127.01037013
성북로-1,성북로 16 ~ 성북로 20-1,T,7,0,0,0,0,0,0,,0000 ~ 0000,0000 ~ 0000,0000 ~ 0000,,미연계,37.5896083,127.0050226
올림픽기념국민생활관,종로구 혜화동 1-21 ,BS,90,250,10,250,10,0,0,,0900 ~ 1800,0900 ~ 1800,0900 ~ 1800,02-745-6701,미연계,37.590361,126.998859
명륜1가공영주차장(구),종로구 명륜1가 5-14,NW,50,250,5,0,,0,0,,0000 ~ 2400,0000 ~ 2400,0000 ~ 2400,02-2236-0052,미연계,37.589779,126.997681
명륜동와룡주차장(구),종로구 명륜3가 1-21,NW,156,250,5,250,5,,0,,0000 ~ 0000,0000 ~ 0000,0000 ~ 0000,02-745-445,미연계,37.588529,126.995369
성균관대학교,종로구 명륜3가 53-21 ,BS,646,2000,30,500,10,,0,,0000 ~ 2400,0000 ~ 2400,0000 ~ 2400,0,미연계,37.588814,126.992454
삼청공원앞(구),종로구 삼청동 25-11,NS,18,250,5,500,10,0,0,,0900 ~ 2100,0900 ~ 1700,0000 ~ 0000,,미연계,37.58761235,126.98342326
유진상가앞(구),서대문구 홍제동 294-46,NS,64,250,5,0,0,0,0,,1000 ~ 1900,1000 ~ 1500,0000 ~ 0000,,미연계,37.59172207,126.94411274
홍제3구역 도시환경정비사업 추진위원회(민영),서대문구 홍제동 306-2,NP,80,2000,30,1500,15,25000,0,,0800 ~ 2300,0800 ~ 2300,0800 ~ 2300,02-379-6663,미연계,37.588057,126.943804
홍제거주자노외(민영),서대문구 홍제동 137-12,NP,13,1500,30,500,10,13000,0,,0800 ~ 2000,0800 ~ 2000,0800 ~ 2000,,미연계,37.587332,126.946277
홍제견인보관소(구),서대문구 홍제동 294-84,NW,75,3000,60,1500,30,,0,,0900 ~ 2100,0900 ~ 2100,0900 ~ 2100,,미연계,37.590652,126.940735
인왕시장앞(구),서대문구 홍제동 295-3,NS,64,250,5,0,0,0,0,,1000 ~ 1900,1000 ~ 1500,0000 ~ 0000,,미연계,37.59158063,126.94426408
삼일 주차장(민영),은평구 응암동 577-7,NP,,2000,30,1000,10,,0,,0000 ~ 2400,0000 ~ 2400,0000 ~ 2400,,미연계,37.591493,126.917133
삼일(민영),은평구 응암동 577-7,NP,22,1500,30,500,10,0,0,,0000 ~ 2400,0000 ~ 2400,0000 ~ 2400,,미연계,37.59149933,126.91711726
서문교회 부설주차장,은평구 응암동 577-57,BS,28,0,0,0,0,0,0,,0500 ~ 2200,0500 ~ 2200,0500 ~ 2200,02-375-0025,미연계,37.591609,126.916764
신양(다솜)(민영),은평구 응암동 577-32,NP,7,3000,60,3000,60,0,0,,0900 ~ 2300,0900 ~ 1600,0000 ~ 0000,02-302-9037,미연계,37.59082259,126.91674696
플러스 주차장(민영),은평구 응암동 601-76,NP,,3000,60,3000,60,,0,,0900 ~ 1800,0900 ~ 1800,0900 ~ 1800,,미연계,37.589374,126.917777
플러스(민영),은평구 응암동 601-76,NP,12,3000,60,500,10,0,0,,0900 ~ 1900,0000 ~ 0000,0000 ~ 0000,02-305-7111,미연계,37.58937332,126.917789
장수주차장 A(민영),은평구 증산동 159-11,NP,5,2000,30,0,0,0,0,,0000 ~ 0000,0000 ~ 0000,0000 ~ 0000,,미연계,37.58809729,126.91233318
장수주차장 B(민영),은평구 증산동 159-13,NP,6,1000,30,0,0,0,0,,0000 ~ 0000,0000 ~ 0000,0000 ~ 0000,,미연계,37.58793002,126.91217256
홍성(민영),은평구 신사동 184-60,NP,6,1500,30,500,10,0,0,,0800 ~ 2200,0000 ~ 0000,0000 ~ 0000,,미연계,37.59152772,126.90545623
하나로 주차장(민영),은평구 수색동 291-25,NP,20,1000,30,1000,30,20000,0,,0000 ~ 0000,0000 ~ 0000,0000 ~ 0000,010-5281-8605,미연계,37.59051312,126.88542132
영 주차장(민영),중랑구 면목동 57-8,NP,101,1500,30,500,10,15000,0,,0000 ~ 0000,0000 ~ 0000,0000 ~ 0000,02-438-0044,미연계,37.58427908,127.09434611
은행나무공영주차장(구),중랑구 면목동 107-5,NW,97,100,5,100,5,0,0,,0000 ~ 2400,0000 ~ 2400,0000 ~ 2400,,미연계,37.58701918,127.09149573
공유) 면목5동 14구간(구),중랑구 면목동 1507-15,NS,4,600,60,300,30,0,0,,0900 ~ 1800,0000 ~ 0000,0000 ~ 0000,02-1661-5806,미연계,37.586376,127.08344
공유) 면목본동 22구간(구),중랑구 면목동 1507-7,NS,4,600,60,300,30,0,0,,0900 ~ 1800,0000 ~ 0000,0000 ~ 0000,02-1661-5806,미연계,37.585882,127.08389
까치공원공영주차장(구),중랑구 면목동 570-0,NW,90,100,5,100,5,0,0,,0000 ~ 2400,0000 ~ 2400,0000 ~ 2400,080-490-3894,미연계,37.58344393,127.08734739
녹색병원 주차장,중랑구 면목동 568-1,BS,80,1500,30,500,10,0,82,2024-10-02 16:00:01,0000 ~ 2400,0000 ~ 0000,0000 ~ 0000,02-1522-0741,20분,37.583909,127.086374
생기(민영),중랑구 면목동 116-1,NP,19,0,,0,0,15000,0,,0000 ~ 0000,0000 ~ 0000,0000 ~ 0000,02-496-5600,미연계,37.5872739,127.08716483
면목천로-1,면목동 1509-15 ~ 면목동 1508-7,T,5,0,0,0,0,0,0,,0000 ~ 0000,0000 ~ 0000,0000 ~ 0000,,미연계,37.5829079,127.0840531
면목5동공영주차장(구),중랑구 면목동 162-22,NW,67,100,5,100,5,0,0,,0000 ~ 2400,0000 ~ 2400,0000 ~ 2400,02-432-4174,미연계,37.58296438,127.08007497
서울보호관찰소,동대문구 휘경동 43-1 ,BP,163,,,,,,0,,1800 ~ 0800,0000 ~ 2400,0000 ~ 2400,02-2200-0204,미연계,37.585529,127.06837
위치추적중앙관제센터,동대문구 휘경동 43-1* ,BP,6,,,,,,0,,0900 ~ 1800,0900 ~ 1800,0900 ~ 1800,02-3407-6700,미연계,37.584772,127.0687141
배봉공영주차장(구),동대문구 휘경동 286-66,NW,199,1000,60,0,0,10000,0,,0900 ~ 1900,0900 ~ 1900,0900 ~ 1900,02-2247-9664~6,미연계,37.58693739,127.06208584
서울시립대로-1,서울시립대로 134` ~ 서울시립대로 146,T,15,0,0,0,0,0,0,,0000 ~ 0000,0000 ~ 0000,0000 ~ 0000,,미연계,37.5828842,127.0532586
동대문세무서,동대문구 청량리동 235-5 ,BP,39,,,,,,0,,1800 ~ 0800,0000 ~ 2400,0000 ~ 2400,02-958-0245,미연계,37.583252,127.047894
청량리동 공영주차장(구),동대문구 청량리동 435-0,NW,67,1000,60,0,0,10000,0,,0900 ~ 1900,0900 ~ 1900,0900 ~ 1900,02-2247-9664~6,미연계,37.58544944,127.04455223
청량리동 노외주차장(구),동대문구 청량리동 51-4,NW,26,1000,60,0,0,10000,0,,0900 ~ 1900,0900 ~ 1900,0900 ~ 1900,02-2247-9664~6,미연계,37.58404715,127.04901881
청량리동주민센터,동대문구 청량리동 57-6 ,BP,5,,,,,,0,,1800 ~ 0800,0000 ~ 2400,0000 ~ 2400,02-2171-6363,미연계,37.586291,127.0473
약령시로-2,청량리동 235-4 ~ 약령시로 154,T,41,0,0,0,0,0,0,,0000 ~ 0000,0000 ~ 0000,0000 ~ 0000,,미연계,37.5829671,127.0473031
약령시로=1,약령시로 133 ~ 청량리동 235-6,T,41,0,0,0,0,0,0,,0000 ~ 0000,0000 ~ 0000,0000 ~ 0000,,미연계,37.5833574,127.0450456
홍릉로-1,홍릉로 40 ~ 홍릉로 54,T,18,0,0,0,0,0,0,,0000 ~ 0000,0000 ~ 0000,0000 ~ 0000,,미연계,37.5841519,127.0440513
동서시장 식품 공영주차장(구),동대문구 제기동 620-17,NS,65,300,10,300,10,36000,0,,0900 ~ 1900,0900 ~ 1500,0000 ~ 0000,,미연계,37.58285559,127.04053998
정화여상 노상(구),동대문구 제기동 855-0,NS,74,500,10,500,10,36000,0,,0900 ~ 1900,0900 ~ 1500,0000 ~ 0000,,미연계,37.58646768,127.04046491
윤주빌딩타워주차장(민영),동대문구 제기동 730-11,NP,22,2000,30,1000,10,,0,,0700 ~ 2200,0700 ~ 2200,0000 ~ 0000,02-567-6219,미연계,37.58474,127.037758
정릉천변 공영주차장(구),동대문구 제기동 1159-0,NS,64,500,10,500,10,36000,0,,0900 ~ 1900,0900 ~ 1500,0000 ~ 0000,011-9953-6949,미연계,37.58630313,127.03682135
제기동주민센터,동대문구 제기동 830-1 ,BP,5,,,,,,0,,1800 ~ 0800,0000 ~ 2400,0000 ~ 2400,02-2171-6063,미연계,37.583125,127.037817
약령시로-3,약령시로 58 ~ 약령시로 72,T,20,0,0,0,0,0,0,,0000 ~ 0000,0000 ~ 0000,0000 ~ 0000,,미연계,37.5828411,127.0379172
제기로-1,제기로 23 ~ 제기로 3-1,T,25,0,0,0,0,0,0,,0000 ~ 0000,0000 ~ 0000,0000 ~ 0000,,미연계,37.5866165,127.03543301
우신향병원 주차장(민영),성북구 안암동5가 86-46,NP,45,1500,30,500,10,,0,,0800 ~ 1800,0900 ~ 1300,0800 ~ 1800,,미연계,37.58527486,127.03106802
안암동주민센터,성북구 안암동2가 140-4,BS,5,0,0,0,0,0,0,,0000 ~ 2400,0000 ~ 2400,0000 ~ 2400,02-2241-5203,미연계,37.585755,127.021432
하나스퀘어,성북구 안암동5가 126-16 ,BS,143,500,5,1500,10,30000,0,,0000 ~ 0000,0000 ~ 0000,0000 ~ 0000,02-3290-4562,미연계,37.5836333,127.02633015
경동고등학교(구),성북구 삼선동3가 43-1,NW,122,150,5,150,5,10000,0,,0000 ~ 2400,0000 ~ 2400,0000 ~ 2400,,미연계,37.585803,127.014961
CGV대학로 고객 주차장,종로구 명륜2가 41-9,BS,49,5000,180,2000,30,0,0,,0000 ~ 2400,0000 ~ 2400,0000 ~ 2400,,미연계,37.58346,126.999864
대학로뮤지컬센터 주차장,종로구 동숭동 25-5,BS,44,2000,30,2000,30,20000,0,,1000 ~ 2300,1000 ~ 2300,1000 ~ 2300,,미연계,37.582889,127.004396
동숭인사이드 주차장,종로구 동숭동 1-44,BS,15,2000,30,2000,30,17000,0,,0930 ~ 2300,0930 ~ 2300,0930 ~ 2300,,미연계,37.583007,127.00364
불가마 주차장,종로구 명륜2가 21-22,BS,29,2000,30,1000,15,25000,0,,0700 ~ 2300,0700 ~ 2300,0700 ~ 2300,,미연계,37.584252,127.000635
중원주차장(민영),종로구 혜화동 185-0,NP,10,2000,30,1000,15,0,0,,0000 ~ 0000,0000 ~ 0000,0000 ~ 0000,02-765-8248,미연계,37.58398113,127.00218169
율곡로-2,율곡로 172 ~ 율곡로 190,T,42,0,0,0,0,0,0,,0000 ~ 0000,0000 ~ 0000,0000 ~ 0000,,미연계,37.5858233,127.0000106
명광교회옆(구),종로구 명륜3가 12-0,NW,8,250,5,250,5,0,0,,0000 ~ 2400,0000 ~ 2400,0000 ~ 2400,02-2236-0052,미연계,37.586747,126.996479
명륜빌딩 주차장,종로구 명륜3가 127-0,BS,15,1000,30,500,10,10000,0,2023-07-26 16:27:41,0000 ~ 2400,0000 ~ 2400,0000 ~ 2400,,미연계,37.58367862,126.99742542
명륜빌딩 주차장 (아마노)(민영),종로구 명륜3가 127-0,NP,15,1000,30,500,10,,0,,0000 ~ 0000,0000 ~ 0000,0000 ~ 0000,,미연계,37.583517,126.997342
성균관 유림회관(시),종로구 명륜3가 53-0,NW,40,1500,30,,,,0,,0000 ~ 0000,0000 ~ 0000,0000 ~ 0000,,미연계,37.585936,126.997951
제일(민영),종로구 명륜2가 150-1,NP,27,1500,30,500,10,15000,0,,0700 ~ 2400,0700 ~ 2400,0700 ~ 2400,02-744-7006,미연계,37.584304,126.998263
창경궁로-1,창경궁로 235 ~ 창경궁로 215,T,28,0,0,0,0,0,0,,0000 ~ 0000,0000 ~ 0000,0000 ~ 0000,,미연계,37.582831301,126.99835922
자투리(민영),종로구 원서동 40-0,NP,3,,,,,,0,,0000 ~ 0000,0000 ~ 0000,0000 ~ 0000,,미연계,37.5831245,126.9893025
공유) 삼청동주민센터 옆(구),종로구 삼청동 111-1,NW,9,600,30,100,10,,0,2024-03-07 13:24:49,0000 ~ 2359,0000 ~ 2359,0000 ~ 2359,02-2148-3335,미연계,37.584849,126.981906
대화주차장(민영),종로구 삼청동 97-2,NP,14,0,0,0,0,0,0,,0000 ~ 0000,0000 ~ 0000,0000 ~ 0000,,미연계,37.583753,126.98185
효자공영주차장(구),종로구 효자동 68-1,NW,23,250,5,0,0,0,0,,0000 ~ 0000,0000 ~ 0000,0000 ~ 0000,,미연계,37.583721,126.971306
효자로 관광버스 주차허용 구간(시),종로구 궁정동 15-0 (청운효자동 주민센터 ~ 무궁화동산 앞),NS,7,0,0,0,0,0,0,,0000 ~ 0000,0000 ~ 0000,0000 ~ 0000,02-2133-2357,미연계,37.5839,126.9708
자하문로-1,자하문로 26-1 ~ 자하문로 52-1,T,37,0,0,0,0,0,0,,0000 ~ 0000,0000 ~ 0000,0000 ~ 0000,,미연계,37.5828071,126.97069101
신교공영(구),종로구 신교동 66-0,NW,158,250,5,250,5,0,0,,0000 ~ 2400,0000 ~ 2400,0000 ~ 2400,02-2236-0052,미연계,37.584085,126.969849
자하문로-3,자하문로 108 ~ 자하문로 120,T,20,0,0,0,0,0,0,,0000 ~ 0000,0000 ~ 0000,0000 ~ 0000,,미연계,37.5859068,126.9701889
자하문로-4,자하문로 125 ~ 자하문로 115,T,28,0,0,0,0,0,0,,0000 ~ 0000,0000 ~ 0000,0000 ~ 0000,,미연계,37.5864402,126.9697539
세공주주차장(민영),서대문구 홍제동 158-38,NP,12,3000,30,1000,10,40000,0,,1000 ~ 1700,1000 ~ 1700,0000 ~ 2400,02-396-9404,미연계,37.5859835,126.9460617
연세스포츠센터,서대문구 홍제동 158-33 ,BS,84,2000,30,2000,30,,0,,0600 ~ 2000,0600 ~ 2000,0600 ~ 2000,,미연계,37.586208,126.94642
경남아파트 주차장,은평구 응암동 714-0 ,BS,121,0,0,0,0,0,0,,0000 ~ 2400,0000 ~ 2400,0000 ~ 2400,02-307-0223,미연계,37.5832853393078,126.920376346171
매바위 공영주차장(구),은평구 응암동 747-8,NW,80,1200,60,100,5,,0,,0000 ~ 2400,0000 ~ 2400,0000 ~ 2400,010-4509-9710,미연계,37.58652245,126.92108714
원아주차장(민영),은평구 응암동 270-22,NP,5,2000,60,,,,0,,0000 ~ 0000,0000 ~ 0000,0000 ~ 0000,010-5285-7440,미연계,37.58379818,126.91988314
응암정보도서관,은평구 응암동 730-3,BS,4,,,,,,0,,1800 ~ 0800,1800 ~ 0800,1800 ~ 0800,02-308-2320,미연계,37.586019,126.91971
인정병원주차장(민영),은평구 응암동 603-54,NP,63,1000,30,500,15,0,0,,0800 ~ 2200,0800 ~ 2200,0800 ~ 2200,02-2187-1450,미연계,37.58592266,126.9160769
대림-1,응암로 172-1 ~ 응암로4길 25-1,T,4,0,0,0,0,0,0,,0000 ~ 0000,0000 ~ 0000,0000 ~ 0000,,미연계,37.5872665,126.9168461
유니온빌딩 주차장,은평구 증산동 164-1 ,BS,5,,,,,,0,,0800 ~ 2200,0800 ~ 2200,0800 ~ 2200,02--,미연계,37.58575,126.911287
중앙하이츠 부설주차장,은평구 증산동 248-0 ,BS,5,0,0,0,0,0,0,,0000 ~ 2400,0000 ~ 2400,0000 ~ 2400,02-372-8986,미연계,37.583188,126.908279
증산동주민센터,은평구 증산동 187-19,BS,6,,,,,,0,,0000 ~ 2400,0000 ~ 2400,0000 ~ 2400,02-351-5395,미연계,37.584353,126.907068
수색진흥아파트 주차장,은평구 수색동 416-1 ,BS,307,,,,,,0,,0000 ~ 0000,0000 ~ 0000,0000 ~ 0000,02--,미연계,37.585334,126.900236
수색감리교회 주차장,은평구 수색동 417-3 ,BS,92,,,,,,0,,0000 ~ 0000,0000 ~ 0000,0000 ~ 0000,02-372-8979,미연계,37.5836647,126.8941056
안정운수주차장(민영),은평구 수색동 381-0,NP,29,,,,,,0,,0000 ~ 0000,0000 ~ 0000,0000 ~ 0000,02-307-5430,미연계,37.58343237,126.89263216
미디어케어라인(민영),마포구 상암동 251-1,NP,96,1500,30,500,10,12000,0,,0000 ~ 2400,0000 ~ 2400,0000 ~ 2400,070-7119-2717,미연계,37.58348,126.887878
우리금융 상암센터 주차장,마포구 상암동 1585-0,BS,544,3000,60,3000,60,12000,0,,0000 ~ 2400,0000 ~ 2400,0000 ~ 2400,,미연계,37.583442,126.885966
성암로-1,상암동 1585 ~ 상암동 1585,T,15,0,0,0,0,0,0,,0000 ~ 0000,0000 ~ 0000,0000 ~ 0000,,미연계,37.5839837,126.8860256
상암오밸리스크1차,마포구 상암동 1734-0,BS,465,1500,30,1500,30,20000,465,2024-10-02 16:01:26,0000 ~ 2400,0000 ~ 2400,0000 ~ 2400,,20분,37.587104,126.883357
한국교통안전공단 상암검사소,마포구 상암동 1733-0 ,BP,80,,,,,,0,,0800 ~ 1830,0800 ~ 1330,0000 ~ 0000,02-309-7033,미연계,37.586437,126.884056
강서1주차장[개화나들목 앞],강서구 방화동 18-1 ,BP,53,1000,30,200,10,10000,17,2024-10-02 16:00:45,0900 ~ 2100,0900 ~ 2100,0900 ~ 2100,,20분,37.58522128,126.81982059
한성 주차장(민영),중랑구 면목동 1094-1,NP,16,1500,30,0,0,0,0,,0000 ~ 0000,0000 ~ 0000,0000 ~ 0000,02-2208-2088,미연계,37.57919005,127.0921962
명성주차장(민영),중랑구 면목동 497-7,NP,27,1500,30,500,10,15000,0,,0900 ~ 2300,0900 ~ 2300,0000 ~ 0000,02-433-0005,미연계,37.58238433,127.0882944
제일 2 주차장(민영),중랑구 면목동 632-6,NP,7,0,0,0,0,0,0,,0000 ~ 0000,0000 ~ 0000,0000 ~ 0000,,미연계,37.5785271,127.08593733
동보주차장(민영),중랑구 면목동 167-48,NP,22,2000,30,2000,30,0,0,,0000 ~ 0000,0000 ~ 0000,0000 ~ 0000,02-208-2556,미연계,37.58171343,127.08064601
면목유수지 공영주차장(시),중랑구 면목동 168-2,NW,567,100,5,100,5,0,0,,0000 ~ 2400,0000 ~ 2400,0000 ~ 2400,,미연계,37.579494,127.081451
홈플러스 면목점 주차장,중랑구 면목동 168-2 ,BS,441,100,5,100,5,0,0,,0000 ~ 2400,0000 ~ 2400,0000 ~ 2400,02-437-2080,미연계,37.580505,127.080645
장안2동주민센터,동대문구 장안동 286-3 ,BP,5,,,,,,0,,1800 ~ 0800,0000 ~ 2400,0000 ~ 2400,02-2171-6345,미연계,37.578525,127.070591
제이앤지산 주차장,동대문구 장안동 94-27 ,BS,114,900,30,300,10,10000,98,2024-10-02 16:01:19,0000 ~ 2400,0000 ~ 2400,0000 ~ 2400,,20분,37.58151728,127.07070593
전농주차장(민영),동대문구 전농동 206-113,NP,22,3000,60,3000,60,,0,,0000 ~ 2400,0000 ~ 2400,0000 ~ 2400,,미연계,37.579841,127.054412
평화주차장(민영),동대문구 전농동 270-31,NP,24,1000,30,1000,30,10000,0,,1100 ~ 1900,0700 ~ 2000,0700 ~ 2000,,미연계,37.578312,127.055042
롯데백화점 청량리점 주차장,동대문구 전농동 588-1 ,BS,1531,1000,30,1000,10,0,520,2024-10-02 16:00:00,0000 ~ 2359,0000 ~ 2359,0000 ~ 2359,02-3707-2350,20분,37.581328,127.049055
서울시립대로-2,서울시립대로 75 ~ 서울시립대로 75,T,21,0,0,0,0,0,0,,0000 ~ 0000,0000 ~ 0000,0000 ~ 0000,,미연계,37.57848238,127.04937991
홍릉로-2,홍릉로 8 ~ 홍릉로 16,T,10,0,0,0,0,0,0,,0000 ~ 0000,0000 ~ 0000,0000 ~ 0000,,미연계,37.5817522,127.0448506
BYC청량리오피스텔,동대문구 용두동 793-0,BS,140,1000,30,1000,30,,0,,0000 ~ 2400,0000 ~ 2400,0000 ~ 2400,,미연계,37.578728,127.04186
노브랜드 경동시장점,동대문구 제기동 1019-0 ,BS,128,1000,30,500,15,,0,,1000 ~ 2000,1000 ~ 2000,1000 ~ 2000,,미연계,37.579129,127.039385
동서시장 과일채소부 공영주차장(구),동대문구 제기동 849-0,NS,94,300,10,300,10,36000,0,,0900 ~ 1900,0900 ~ 1500,0000 ~ 0000,02-962-1650,미연계,37.58158981,127.04054707
경동-1,고산자로36길 3 ~ 고산자로 476,T,50,0,0,0,0,0,0,,0000 ~ 0000,0000 ~ 0000,0000 ~ 0000,,미연계,37.5789662,127.0385062
동일주차장(민영),동대문구 제기동 1052-3,NP,14,2000,30,2000,30,15000,0,,0700 ~ 1900,0700 ~ 1900,0700 ~ 1900,,미연계,37.57838655,127.03788404
서울약령시공영주차장(구),동대문구 제기동 1082-0,NW,199,300,10,300,10,13000,0,,0000 ~ 2400,0000 ~ 2400,0000 ~ 2400,070-5088-2390,미연계,37.58066496,127.03763208
세명유료주차장(민영),동대문구 제기동 1054-1,NP,35,2000,30,1000,15,30000,0,,0000 ~ 2400,0000 ~ 2400,0000 ~ 2400,02-969-6489,미연계,37.57904117,127.03804212
정릉천복개 공영주차장(구),동대문구 제기동 271-50,NW,143,500,10,,,,0,,0900 ~ 1900,0900 ~ 1500,0000 ~ 2400,,미연계,37.580998,127.035313
한솔동의보감주차장(민영),동대문구 제기동 271-48,NP,240,1500,30,,,,0,,0000 ~ 0000,0000 ~ 0000,0000 ~ 0000,,미연계,37.58059824,127.03460499
두산베어스타워,동대문구 용두동 138-41,BS,110,2000,30,2000,30,30000,110,2024-10-02 16:01:26,0000 ~ 2400,0000 ~ 2400,0000 ~ 2400,,20분,37.578574,127.03242
낙산성곽 버스전용 주차장(구),종로구 창신동 615-62,NS,9,0,0,0,0,0,0,,0000 ~ 0000,0000 ~ 0000,0000 ~ 0000,,미연계,37.58024483,127.01017306
창신쌍용2지구 북측 이륜차 주차장(구),종로구 창신동 37-16,NS,9,0,0,0,0,0,0,,0000 ~ 0000,0000 ~ 0000,0000 ~ 0000,,미연계,37.58056997,127.01065569
한성대학교 주차장,성북구 삼선동2가 389-0 ,BS,150,500,10,500,10,10000,0,,0000 ~ 2400,0000 ~ 2400,0000 ~ 2400,,미연계,37.582756,127.010326
연주차장(민영),종로구 동숭동 190-12,NP,5,,,,,,0,,0000 ~ 0000,0000 ~ 0000,0000 ~ 0000,,미연계,37.5797029,127.004861
유니플렉스 주차장,종로구 동숭동 25-9 ,BS,33,2000,30,2000,30,10000,0,,0730 ~ 2300,0730 ~ 2300,0730 ~ 2300,0,미연계,37.582291,127.00457
GS타임즈 대학로(민영),종로구 동숭동 1-138,NP,15,2000,30,2000,30,,0,,0000 ~ 0000,0000 ~ 0000,0000 ~ 0000,,미연계,37.580341,127.003699
SJA빌딩 주차장,종로구 연건동 39-0,BS,29,3000,60,500,10,10000,0,,0900 ~ 1900,0900 ~ 1900,0900 ~ 1000,,미연계,37.579143,127.001817
대승(민영),종로구 연건동 37-0,NP,20,,,,,,0,,0000 ~ 0000,0000 ~ 0000,0000 ~ 0000,02-2233-4585,미연계,37.57903455,127.00186647
대학로 문화공간 주차장,종로구 동숭동 1-80 ,BS,34,2500,60,2500,60,0,0,,1030 ~ 2300,1030 ~ 2300,1030 ~ 2300,,미연계,37.582281,127.003668
대학로 바탕골 주차장,종로구 동숭동 1-60,BS,10,2000,30,2000,30,,0,,0800 ~ 2100,0800 ~ 2100,0800 ~ 2100,,미연계,37.581891,127.00258
대학로스타시티빌딩 주차장,종로구 명륜4가 113-1 ,BS,33,2000,30,2000,30,24500,0,,0000 ~ 2400,0000 ~ 2400,0000 ~ 2400,0,미연계,37.582063,127.000488
대학로예술극장 주차장,종로구 동숭동 1-67 ,BS,71,2000,30,1000,15,0,0,,0800 ~ 2300,0800 ~ 2300,0800 ~ 2300,,미연계,37.582051,127.00319
더브릭스빌딩 주차장,종로구 동숭동 1-93,BS,12,2000,30,1000,15,0,0,,0900 ~ 2200,0900 ~ 2200,0900 ~ 2200,0,미연계,37.580989,127.003737
동호(민영),종로구 동숭동 1-143,NP,13,2000,30,1000,15,20000,0,,1000 ~ 2400,1000 ~ 2400,1000 ~ 2400,02-743-5377,미연계,37.580546,127.004029
리트모빌딩 주차장,종로구 동숭동 1-73,BS,16,3000,60,1500,30,15000,0,,0900 ~ 2200,0900 ~ 2200,0900 ~ 2200,,미연계,37.582485,127.003286
서울대학교병원 고객 주차장,종로구 연건동 28-21 ,BS,1595,1500,30,500,10,30000,0,,0000 ~ 2400,0000 ~ 2400,0000 ~ 2400,,미연계,37.57900667,126.99913502
예스24스테이지,종로구 동숭동 1-52 ,BS,33,2000,30,500,10,,0,,0800 ~ 2300,0800 ~ 2300,0800 ~ 2300,,미연계,37.582779,127.003308
유리빌딩 주차장,종로구 동숭동 1-131,BS,22,3000,30,1000,15,20000,0,,0700 ~ 2400,0700 ~ 2400,0700 ~ 2400,,미연계,37.57991952,127.00352907
자유빌딩 주차장,종로구 동숭동 1-45,BS,25,2000,30,2000,30,12000,0,,0800 ~ 2300,0800 ~ 2300,0800 ~ 2300,,미연계,37.58275,127.00364
청민빌딩 주차장,종로구 동숭동 1-55,BS,26,1500,30,1500,30,0,0,,0900 ~ 2400,0900 ~ 2400,0900 ~ 2400,,미연계,37.58277984,127.00265773
한국문화예술위원회 예술가의 집,종로구 동숭동 1-130,BS,28,4000,60,1500,20,,0,,0000 ~ 2400,0000 ~ 2400,0000 ~ 2400,02-760-4625,미연계,37.580209,127.002916
한국방송통신대학교 주차장,종로구 동숭동 169-1 ,BS,331,400,5,400,5,,0,,0000 ~ 2400,0000 ~ 2400,0000 ~ 2400,,미연계,37.579638,127.003068
황금주차장(민영),종로구 명륜4가 105,NP,28,2000,30,1000,15,25000,0,,0000 ~ 2400,0000 ~ 2400,0000 ~ 2400,02-744-9882,미연계,37.581847,127.001418
아시아 주차장(민영),종로구 명륜4가 187-0,NP,16,2000,30,2000,30,0,0,,0700 ~ 2200,0700 ~ 2200,0700 ~ 2200,,미연계,37.58252,126.998723
창경궁관리소,종로구 와룡동 2-1 ,BS,33,3000,120,500,10,,0,,0900 ~ 1900,0900 ~ 1900,0900 ~ 1900,02-2172-0108,미연계,37.5806991414411,126.99625552728921
창경궁로1 관광버스 주차허용 구간(시),종로구 와룡동 2-86 (창경궁주차장~홍화문),NS,11,0,0,0,0,0,0,,0000 ~ 0000,0000 ~ 0000,0000 ~ 0000,02)2133-2357,미연계,37.58026036,126.99632737
창경궁로2 관광버스 주차허용 구간(시),종로구 와룡동 2-86 (홍화문~선인문),NS,5,0,0,0,0,0,0,,0000 ~ 0000,0000 ~ 0000,0000 ~ 0000,02)2133-2357,미연계,37.57921259,126.9964856
원서공원 앞(구),종로구 와룡동 206-0,NS,17,500,5,500,5,0,0,,0900 ~ 1900,0900 ~ 1900,0900 ~ 1900,,미연계,37.57849518,126.98930655
현대빌딩,종로구 계동 140-2 ,BS,1195,3000,30,3000,30,15000,0,,0000 ~ 0000,0000 ~ 0000,0000 ~ 0000,0,미연계,37.578308,126.987502
도구로-1, ~ ,T,65,0,0,0,0,0,0,,0000 ~ 0000,0000 ~ 0000,0000 ~ 0000,,미연계,37.5806517,126.9885977
정독도서관,종로구 화동 2-0 ,BP,45,190,5,190,5,0,0,2022-04-15 11:33:00,0700 ~ 2230,0700 ~ 2230,0700 ~ 2230,02-2011-5799,미연계,37.58078251,126.98313418
청남문화원(민영),종로구 가회동 170-4,NP,20,2000,30,500,10,0,0,,0000 ~ 0000,0000 ~ 0000,0000 ~ 0000,02-765-7174,미연계,37.580333,126.984775
화동(민영),종로구 화동 76-2,NP,14,2000,30,2000,30,25000,0,,0900 ~ 2300,0900 ~ 2300,0900 ~ 2300,02-733-1110,미연계,37.58097353,126.98197427
화동유료주차장(민영),종로구 화동 76-2,NP,14,2500,30,2500,30,25000,0,,0900 ~ 2200,0900 ~ 2200,0900 ~ 2200,02-733-1110,미연계,37.58096,126.981975
국립현대미술관 서울관,종로구 소격동 165-0 ,BP,384,3000,60,500,10,20000,236,2024-10-02 16:01:42,0800 ~ 2300,0800 ~ 2300,0800 ~ 2300,02-3701-9841~4,20분,37.57951713,126.98059114
대화(민영),종로구 팔판동 59-4,NP,16,3000,30,1000,10,40000,0,,0900 ~ 2200,0900 ~ 2200,0900 ~ 2200,02-738-4074,미연계,37.582314,126.981621
푸른기린(민영),종로구 화동 56-0,NP,25,2000,30,2000,30,40000,0,,0900 ~ 2300,0900 ~ 2300,0900 ~ 2300,02-725-1481,미연계,37.581743,126.981513
끄레아(민영),종로구 통의동 79-0,NP,45,1000,10,1000,10,40000,0,,0800 ~ 2300,0900 ~ 2200,0900 ~ 2200,02-723-1942,미연계,37.578541,126.9724
자하문로-2,자하문로 43 ~ 자하문로 13-1,T,45,0,0,0,0,0,0,,0000 ~ 0000,0000 ~ 0000,0000 ~ 0000,,미연계,37.5810246,126.9708826
필운대로 도미노피자앞 이륜차 주차장(구),종로구 누하동 7-0,NS,11,0,0,0,0,0,0,,0000 ~ 0000,0000 ~ 0000,0000 ~ 0000,,미연계,37.57990592,126.96863337
서대문구청 주차장,서대문구 연희동 168-6 ,BP,85,500,5,500,5,20000,0,,0900 ~ 1800,0000 ~ 0000,0000 ~ 0000,02-330-1063,미연계,37.57922299,126.9366198
홍은2동 주민센터,,DI,1,0,0,0,0,0,0,,0000 ~ 0000,0000 ~ 0000,0000 ~ 0000,,미연계,37.5800365,126.9340728
남가좌2동 주민센터,,DI,1,0,0,0,0,0,0,,0000 ~ 0000,0000 ~ 0000,0000 ~ 0000,,미연계,37.578518,126.92377
DMC우방아파트 주차장,은평구 증산동 244-0 ,BS,5,0,0,0,0,0,0,,0000 ~ 2400,0000 ~ 2400,0000 ~ 2400,02-303-7223,미연계,37.58201,126.902829
수색동공영주차장(구),은평구 수색동 78-2,NW,111,100,5,100,5,,0,,0000 ~ 2400,0000 ~ 2400,0000 ~ 2400,010-2981-8523,미연계,37.58049896,126.89893152
이마트 수색점,은평구 수색동 75-0 ,BS,703,1000,10,1000,10,30000,0,,1000 ~ 2200,1000 ~ 2200,1000 ~ 2200,02--,미연계,37.579641,126.898765
SBS프리즘 타워주차장,마포구 상암동 1607-1 ,BS,196,0,30,500,10,0,159,2024-10-02 16:01:48,0000 ~ 2400,0000 ~ 2400,0000 ~ 2400,,20분,37.57970504,126.89280744
디디엠씨(DDMC) 주차장,마포구 상암동 1610-0 ,BS,715,0,0,500,10,22000,517,2024-10-02 16:01:26,0000 ~ 2400,0000 ~ 2400,0000 ~ 2400,,20분,37.57840939,126.89298914
삼천리주차장(민영),은평구 수색동 72-1,NP,50,1000,60,200,10,10000,0,,0800 ~ 2300,0800 ~ 2300,0800 ~ 2300,,미연계,37.58087565,126.89704137
성암로 관광버스 주차허용 구간(시),마포구 상암동 1695-0,NS,7,0,0,0,0,0,0,,0000 ~ 0000,0000 ~ 0000,0000 ~ 0000,,미연계,37.581598,126.891665
수색마트 주차장(수정주차장),은평구 수색동 106-1 ,BS,44,1000,30,1000,30,15000,0,,0800 ~ 2300,0800 ~ 2300,0800 ~ 2300,02-302-9000,미연계,37.582176,126.895922
수정 주차장,은평구 수색동 106-1 ,BS,44,1000,30,1000,30,15000,0,,0800 ~ 2300,0800 ~ 2300,0800 ~ 2300,,미연계,37.58219567,126.89594712
엠비씨 씨앤아이 파크엠(MBC C&I PARK M),마포구 상암동 1615-0 ,BS,631,1500,10,500,10,30000,399,2024-10-02 16:01:44,0000 ~ 2400,0000 ~ 2400,0000 ~ 2400,,20분,37.57858093,126.89427368
코레일네트웍스(주)수색(민영),은평구 수색동 81-1,NP,78,0,,300,10,10000,0,,0700 ~ 2300,0700 ~ 2300,0700 ~ 2300,02-3271-0737,미연계,37.58095012,126.89617439
한국철도공사(수색역),은평구 수색동 81-0 ,BS,78,1000,30,500,10,10000,0,,0000 ~ 2400,0000 ~ 2400,0000 ~ 2400,02-1544-7788,미연계,37.58185032672859,126.89444275163706
(주)우리기술 사옥,마포구 상암동 1593-0 ,BS,159,500,10,500,10,,126,2024-10-02 15:59:14,0000 ~ 2400,0000 ~ 2400,0000 ~ 2400,,20분,37.58139385,126.887447
CJ E&M 센터  주차장,마포구 상암동 1606-0,BS,484,1000,20,1000,20,0,0,,0000 ~ 2400,0000 ~ 2400,0000 ~ 2400,,미연계,37.578533,126.891559
KGIT 센터 주차장,마포구 상암동 1601-0,BS,555,6000,30,500,10,,0,,0000 ~ 2400,0000 ~ 2400,0000 ~ 2400,,미연계,37.580069,126.889111
누리꿈스퀘어 주차장,마포구 상암동 1605-0,BS,969,500,10,500,10,20000,0,,0000 ~ 2400,0000 ~ 2400,0000 ~ 2400,,미연계,37.579367,126.890277
상암 더팬빌딩 주차장[마포 상암점],마포구 상암동 1592-0 ,BS,120,500,10,500,10,0,101,2024-10-02 16:01:48,0000 ~ 2400,0000 ~ 2400,0000 ~ 2400,,20분,37.58162041,126.88706131
전자회관 주차장,마포구 상암동 1599-0,BS,146,1500,30,500,10,20000,0,,0000 ~ 2400,0000 ~ 2400,0000 ~ 2400,,미연계,37.5808418,126.8883896
한국콘텐츠진흥원 상암분원,마포구 상암동 1602-0 ,BP,121,,,,,,0,,0000 ~ 0000,0000 ~ 2400,0000 ~ 2400,02-300-5901,미연계,37.580547,126.889691
마포청소년문화의집,마포구 상암동 1688-0 ,BP,19,,,,,,0,,0000 ~ 2400,0000 ~ 2400,0000 ~ 2400,02-303-6303,미연계,37.580349,126.883908
상암IT타워 주차장,마포구 상암동 1590-0,BS,363,1500,30,500,10,30000,0,,0600 ~ 2400,0600 ~ 2400,0600 ~ 2400,,미연계,37.581694,126.885952
도로교통공단 서부운전면허시험장,마포구 상암동 339-6 ,BP,190,,,,,,0,,0830 ~ 1800,0000 ~ 0000,0000 ~ 0000,02-300-3521,미연계,37.579237,126.879504
난지도길-1,가양대로 110 ~ 성산동 665,T,285,0,0,0,0,0,0,,0000 ~ 0000,0000 ~ 0000,0000 ~ 0000,,미연계,37.5796408,126.8768784
난지도길-2,성산동 665 ~ 가양대로 110,T,285,0,0,0,0,0,0,,0000 ~ 0000,0000 ~ 0000,0000 ~ 0000,,미연계,37.5783179,126.8797066
금낭화로-1,금낭화로 167 ~ 금낭화로 170,T,25,0,0,0,0,0,0,,0000 ~ 0000,0000 ~ 0000,0000 ~ 0000,,미연계,37.5813261,126.8127639
금낭화로-2,금낭화로 170 ~ 금낭화로 167,T,25,0,0,0,0,0,0,,0000 ~ 0000,0000 ~ 0000,0000 ~ 0000,,미연계,37.5814919,126.8127931
공유) 22-29(구),강서구 방화동 816-4 담벼락쪽,NS,6,600,30,600,30,0,0,2024-06-21 08:21:14,0900 ~ 1800,0000 ~ 0000,0000 ~ 0000,,미연계,37.578606,126.812339
용마폭포공원공영주차장(구),중랑구 면목동 1-4,NW,119,100,5,,,,0,,0900 ~ 2100,0900 ~ 2100,0000 ~ 0000,,미연계,37.57436,127.089338
제일1주차장(민영),중랑구 면목동 353-8,NP,11,2000,60,0,0,10000,0,,0800 ~ 2130,0800 ~ 2130,0800 ~ 2130,02-492-9939,미연계,37.57784936,127.0851203
중곡초교(구),중랑구 면목동 380-0,NW,140,100,5,100,5,,0,,0000 ~ 2400,0000 ~ 2400,0000 ~ 2400,,미연계,37.574305,127.08376
장한로-4,장한로 144 ~ 장한로 198,T,77,0,0,0,0,0,0,,0000 ~ 0000,0000 ~ 0000,0000 ~ 0000,,미연계,37.5741444,127.07209001
장안2동 공영주차장(시),동대문구 장안동 286-9,NW,80,130,5,130,5,9300,62,2024-10-02 16:01:32,0000 ~ 2400,0000 ~ 2400,0000 ~ 2400,02-2290-6417,20분,37.5782752,127.07061896
장안공원지하주차장(구),동대문구 장안동 300-0,NW,163,500,10,0,0,0,0,,0000 ~ 2400,0000 ~ 2400,0000 ~ 2400,,미연계,37.577394,127.071387
장한로-3,장한로 199 ~ 장한로 147,T,80,0,0,0,0,0,0,,0000 ~ 0000,0000 ~ 0000,0000 ~ 0000,,미연계,37.57688501,127.0719611
전농하우스토리 주차장,동대문구 전농동 32-4 ,BS,165,1000,30,500,10,20000,0,2023-07-26 16:27:38,0000 ~ 2400,0000 ~ 2400,0000 ~ 2400,,미연계,37.5771126,127.05852259
전농로-1,전농로 115 ~ 전농로 105,T,15,0,0,0,0,0,0,,0000 ~ 0000,0000 ~ 0000,0000 ~ 0000,,미연계,37.5753303,127.0575066
부군당길공영주차장(구),동대문구 전농동 273-1,NW,63,500,10,500,10,,0,,0000 ~ 2400,0000 ~ 2400,0000 ~ 2400,02-2247-9664~6,미연계,37.578219,127.054589
전농1동주민센터,동대문구 전농동 678-1 ,BP,2,,,,,,0,,1800 ~ 0800,0000 ~ 2400,0000 ~ 2400,02-2171-6103,미연계,37.577985,127.047724
LG전자베스트샵 용두점,동대문구 용두동 29-6,BS,27,3000,10,3000,10,80000,27,2024-10-02 16:01:31,0000 ~ 2400,0000 ~ 2400,0000 ~ 2400,,20분,37.575415,127.0386
동대문구청,동대문구 용두동 39-9 ,BP,264,,,,,,0,,1800 ~ 0800,0000 ~ 2400,0000 ~ 2400,02-2127-4310,미연계,37.574371,127.039834
홈플러스 동대문점,동대문구 용두동 33-1,BS,669,1000,10,1000,10,30000,354,2024-10-02 16:01:54,1000 ~ 2400,1000 ~ 2400,1000 ~ 2400,02-2173-8000,20분,37.574439,127.038774
공유) 용신동 B 98구간(구),동대문구 용두동 52-42,NW,26,1000,60,1000,60,,0,,0900 ~ 1900,0900 ~ 1900,0000 ~ 0000,,미연계,37.577323,127.036779
동대문베네스트어반라이프,동대문구 용두동 100-5 ,BS,131,1000,30,1000,30,30000,131,2024-10-02 16:01:26,0000 ~ 2400,0000 ~ 2400,0000 ~ 2400,,20분,37.577858,127.033597
동의보감타워,동대문구 용두동 787-0 ,BS,153,1500,30,1500,30,0,153,2024-10-02 16:01:30,0000 ~ 2400,0000 ~ 2400,0000 ~ 2400,,20분,37.577816,127.037717
푸르지오시티,동대문구 용두동 104-3,BS,450,0,2,1000,30,20000,0,,0000 ~ 2400,0000 ~ 2400,0000 ~ 2400,,미연계,37.57777,127.032774
서울동부병원,동대문구 용두동 118-20,BS,144,500,10,500,10,,0,,0000 ~ 0000,0000 ~ 0000,0000 ~ 0000,,미연계,37.57536,127.031545
용운빌딩,동대문구 용두동 119-1,BS,48,2000,30,1000,10,,0,,0800 ~ 2200,0800 ~ 2200,0800 ~ 2200,,미연계,37.577694,127.031023
 ABL생명빌딩 주차장,종로구 숭인동 1383-0 ,BS,57,2000,30,1000,15,,0,,0700 ~ 2200,0700 ~ 2200,0700 ~ 2200,,미연계,37.574589,127.021938
갈비예찬(민영),종로구 숭인동 1383-2,NP,25,3000,30,1000,10,30000,0,,0000 ~ 2400,0000 ~ 2400,0000 ~ 2400,,미연계,37.57455972,127.02166496
계명주차장(민영),종로구 숭인동 1063-0,NP,47,2000,30,1000,10,,0,,0700 ~ 2300,0700 ~ 2300,0700 ~ 2300,02-1599-5400,미연계,37.575458,127.022056
대경빌딩 주차장,종로구 숭인동 1385-0 ,BS,79,3000,30,1000,10,24000,0,,0700 ~ 2200,0800 ~ 1900,0900 ~ 1900,0,미연계,37.574339,127.022882
신설동제2주차장(민영),동대문구 신설동 81-84,NP,25,1500,30,1500,30,10000,0,,0800 ~ 2130,0800 ~ 2130,0800 ~ 2130,02-923-7043,미연계,37.576676,127.023851
롯데캐슬 뒤 이륜차 주차장(구),종로구 숭인동 76-1,NS,8,0,0,0,0,0,0,,0000 ~ 0000,0000 ~ 0000,0000 ~ 0000,,미연계,37.57429402,127.01649412
종로63가길 이륜차 주차장(구),종로구 숭인동 58-2,NS,5,0,0,0,0,0,0,,0000 ~ 0000,0000 ~ 0000,0000 ~ 0000,,미연계,37.57728049,127.01868347
창대교회 옆 이륜차 주차장(구),종로구 숭인동 62-9,NS,2,0,0,0,0,0,0,,0000 ~ 0000,0000 ~ 0000,0000 ~ 0000,,미연계,37.5745967,127.01629944
공유) 창신동 49번~53번(창삼 제1공영주차장)(구),종로구 창신동 23-348,NW,5,600,30,100,5,,0,,0900 ~ 1800,0900 ~ 1800,0900 ~ 1800,02-2148-3335,미연계,37.575867,127.012512
낙산공영(구),종로구 창신동 23-343,NW,46,150,5,150,5,,0,,0000 ~ 2400,0000 ~ 2400,0000 ~ 2400,02-6048-1234,미연계,37.5773975,127.012171
우성(민영),종로구 창신동 647-12,NP,16,2000,30,3000,60,15000,0,,0700 ~ 2359,0700 ~ 2359,0700 ~ 2359,,미연계,37.57416874,127.01046333
창삼공영(구),종로구 창신동 23-346,NW,53,150,5,150,5,,0,,0000 ~ 2400,0000 ~ 2400,0000 ~ 2400,,미연계,37.5762399,127.0125243
창신 주차장(민영),종로구 창신동 596-12,NP,10,,,,,,0,,0000 ~ 0000,0000 ~ 0000,0000 ~ 0000,,미연계,37.576966,127.010177
창신1동공영주차장(창일공영)(구),종로구 창신동 82-0,NW,86,2000,240,,,5000,0,,0900 ~ 1800,0900 ~ 1800,0900 ~ 1800,02-2236-0052,미연계,37.57488143,127.0150838
서울지방국세청효제별관(이륜주차장)(구),종로구 효제동 6-3 ,NS,2,0,0,0,0,0,0,,0000 ~ 0000,0000 ~ 0000,0000 ~ 0000,,미연계,37.574043,127.004551
예일빌딩 주차장,종로구 충신동 60-0,BS,67,5000,60,5000,60,0,0,,0800 ~ 1800,0000 ~ 0000,0000 ~ 0000,,미연계,37.575312,127.004678
이화공영(구),종로구 이화동 13-2,NW,100,400,5,400,5,,0,,0000 ~ 2400,0000 ~ 2400,0000 ~ 2400,,미연계,37.576537,127.005578
동신(민영),종로구 이화동 215-0,NP,12,2000,30,1000,15,15000,0,,0700 ~ 1900,0800 ~ 1700,0000 ~ 0000,02-765-9122,미연계,37.575798,127.003311
서울대학교치과병원,종로구 연건동 28-21*,BS,241,500,10,500,10,,0,,0000 ~ 2400,0000 ~ 2400,0000 ~ 2400,02-2072-2655,미연계,37.57749391456385,126.99994056647303
여전도회관 주차장,종로구 연지동 1-1,BS,72,2000,30,1000,10,30000,0,,0700 ~ 2000,0700 ~ 2000,0700 ~ 2000,,미연계,37.575416,126.999521
연지(민영),종로구 연지동 106-0,NP,15,2000,30,3000,60,15000,0,,0000 ~ 0000,0000 ~ 0000,0000 ~ 0000,010-3710-4279,미연계,37.57408506,126.99915752
이화(민영),종로구 이화동 189-0,NP,50,50,5,500,5,20000,0,,0800 ~ 2230,0800 ~ 2230,0900 ~ 2200,02-774-5190,미연계,37.576625,127.003172
한국교회100주년기념관 주차장,종로구 연지동 135-0,BS,100,3000,30,1000,10,15000,0,,0900 ~ 1800,0900 ~ 1800,0900 ~ 1800,02-741-4370,미연계,37.574411,127.000545
현대그룹 빌딩 주차장,종로구 연지동 1-7,BS,410,2000,30,2000,30,30000,0,,0600 ~ 2400,0000 ~ 0000,0000 ~ 0000,,미연계,37.575041,127.000548
홍익대학교 대학로캠퍼스,종로구 연건동 128-8 ,BS,418,3000,30,2000,20,40000,418,2024-10-02 16:01:21,0000 ~ 2400,0000 ~ 2400,0000 ~ 2400,02-3275-3942,20분,37.576526,127.001474
율곡로-1,율곡로 187 ~ 율곡로 179,T,14,0,0,0,0,0,0,,0000 ~ 0000,0000 ~ 0000,0000 ~ 0000,,미연계,37.5759997,126.9991619
고궁주차장(민영),종로구 원남동 171-2,NP,20,2000,30,2000,30,,0,,0000 ~ 0000,0000 ~ 0000,0000 ~ 0000,,미연계,37.575937,126.996566
보령빌딩 주차장,종로구 원남동 66-21 ,BS,152,2000,30,1000,10,25000,0,,0600 ~ 2400,0600 ~ 2400,0600 ~ 2400,,미연계,37.574515,126.998018
신원남(민영),종로구 원남동 249-7,NP,25,4000,60,1000,15,,0,,0000 ~ 0000,0000 ~ 0000,0000 ~ 0000,,미연계,37.574909,126.997005
창경궁로-2,창경궁로 145 ~ 창경궁로 125,T,42,0,0,0,0,0,0,,0000 ~ 0000,0000 ~ 0000,0000 ~ 0000,,미연계,37.5755338,126.9972538
GS타임즈 익선동(민영),종로구 와룡동 80-1,NP,16,600,5,600,5,,0,,0000 ~ 0000,0000 ~ 0000,0000 ~ 0000,,미연계,37.5751482,126.9909787
고강(민영),종로구 와룡동 40-1,NP,18,2000,30,1000,30,0,0,,0000 ~ 0000,0000 ~ 0000,0000 ~ 0000,,미연계,37.57582388,126.99096811
대하주차장(민영),종로구 익선동 33-1,NP,10,2500,30,2500,30,,0,,0000 ~ 0000,0000 ~ 0000,0000 ~ 0000,,미연계,37.575265,126.988647
삼환빌딩 주차장,종로구 운니동 98-5 ,BS,145,2000,30,1000,15,40000,0,2023-07-26 16:27:37,0000 ~ 2400,0000 ~ 2400,0000 ~ 2400,,미연계,37.5768231,126.98893866
안국역 4번출구 주차장(민영),종로구 운니동 114-2,NP,92,1000,30,500,15,20000,0,2023-09-22 13:56:37,0000 ~ 2400,0000 ~ 2400,0000 ~ 2400,031-628-7168,미연계,37.57681454,126.98763241
와룡주차장(민영),종로구 와룡동 40-1,NP,12,2000,30,1000,10,,0,,0000 ~ 0000,0000 ~ 0000,0000 ~ 0000,,미연계,37.5758183,126.9909364
익선(민영),종로구 익선동 111-0,NP,8,2000,30,2000,30,,0,,0800 ~ 2100,0800 ~ 2100,0800 ~ 2100,02-2277-1441,미연계,37.574143,126.9906
종로세무서,종로구 낙원동 58-8,BS,13,0,0,0,0,0,0,,0900 ~ 1800,0000 ~ 0000,0000 ~ 0000,0,미연계,37.573867,126.988934
창경(민영),종로구 운니동 10-0,NP,20,2000,30,1000,10,18000,0,,0000 ~ 2400,0000 ~ 2400,0000 ~ 2400,010-2566-891,미연계,37.576984,126.98946
행복주차장(민영),종로구 운니동 97-0,NP,23,2000,30,1000,10,18000,0,,0700 ~ 2100,0700 ~ 1900,0900 ~ 1800,02-744-2159,미연계,37.576264,126.989157
AJ파크 종로관훈(민영),종로구 관훈동 112-4,NP,78,2000,20,1200,10,33000,0,,0000 ~ 2400,0000 ~ 2400,0000 ~ 2400,02-735-1800,미연계,37.575524,126.984307
AJ파크 해영회관점(민영),종로구 안국동 117-0,NP,75,2000,30,1000,15,28000,0,,0000 ~ 2400,0000 ~ 2400,0000 ~ 2400,02-733-8564,미연계,37.576793,126.98481
GS타임즈 경운(민영),종로구 경운동 65-0,NP,16,3000,30,1000,10,0,0,,0000 ~ 2400,0000 ~ 2400,0000 ~ 2400,080-330-3600,미연계,37.57451,126.986124
국원주차장(민영),종로구 운니동 114-8,NP,17,2000,30,1000,15,,0,,0000 ~ 0000,0000 ~ 0000,0000 ~ 0000,,미연계,37.576821,126.986658
동덕빌딩 주차장,종로구 관훈동 151-8 ,BS,101,3000,30,1000,15,20000,0,,0000 ~ 2400,0000 ~ 2400,0000 ~ 2400,0,미연계,37.574883,126.98317
서원빌딩 주차장,종로구 경운동 91-1 ,BS,50,2000,30,2000,30,20000,0,,0700 ~ 1900,0700 ~ 1300,0000 ~ 0000,0,미연계,37.576308,126.985964
우정국로-1,견지동 39-5 ~  우정국로 43,T,22,0,0,0,0,0,0,,0000 ~ 0000,0000 ~ 0000,0000 ~ 0000,,미연계,37.5741997,126.98278601
우정국로-2,우정국로 46 ~ 우정국로 68,T,24,0,0,0,0,0,0,,0000 ~ 0000,0000 ~ 0000,0000 ~ 0000,,미연계,37.5743413,126.98307601
경복궁 주차장,종로구 세종로 1-1 ,BS,266,3000,120,800,10,0,180,2024-10-02 16:01:54,0000 ~ 0000,0000 ~ 0000,0000 ~ 0000,02-736-9536,20분,37.576926,126.9791106
서울지방국세청,종로구 수송동 104-0,BS,4,1500,15,500,5,0,0,,1800 ~ 0800,0000 ~ 2400,0000 ~ 2400,010-2507-1853,미연계,37.574066,126.979885
수송스퀘어 주차장,종로구 수송동 83-1 ,BS,310,3000,30,3000,30,30000,0,,0000 ~ 2400,0000 ~ 2400,0000 ~ 2400,0,미연계,37.574156,126.981305
연합뉴스빌딩,종로구 수송동 110-0 ,BS,197,1000,10,1000,10,50000,0,,0000 ~ 2400,0000 ~ 2400,0000 ~ 2400,0,미연계,37.57442,126.980486
열린마당(구),종로구 세종로 111-0 옆,NS,13,500,5,1000,10,0,0,,0900 ~ 2100,0900 ~ 1500,0000 ~ 0000,,미연계,37.57546727,126.97864632
케이트윈타워,종로구 중학동 19-0 ,BS,402,3000,30,1000,10,50000,358,2024-10-02 16:01:55,0000 ~ 2400,0000 ~ 2400,0000 ~ 2400,02-1899-7275,20분,37.574719,126.979023
트윈트리타워 주차장,종로구 중학동 14-0 ,BS,266,3000,30,1000,10,,174,2024-10-02 16:00:02,0000 ~ 2400,0000 ~ 2400,0000 ~ 2400,02-1644-8830,20분,37.57542635,126.9801813
경복궁역 이륜차 주차장(구),종로구 내자동 67-2,NS,5,0,0,0,0,0,0,,0000 ~ 0000,0000 ~ 0000,0000 ~ 0000,,미연계,37.5762416,126.97236133
경희궁의아침 2단지 주차장,종로구 내수동 71-0 ,BS,377,6000,60,3000,30,,0,,0000 ~ 2400,0000 ~ 2400,0000 ~ 2400,0,미연계,37.573944,126.971244
광화문 플래티넘 오피스텔 주차장,종로구 적선동 156-0,BS,113,2000,30,1000,10,20000,0,,0700 ~ 2200,0700 ~ 2200,0000 ~ 0000,0,미연계,37.574449,126.973598
