주차장 이름,주소,주차 타입,주차 가능 차량 수,요금,요금 시간 기준,추가 요금,추가 요금 시간 기준,일일 최대 요금,현재 주차 차량 수,현재 주차 갱신 시간,평일 운영 시간,주말 운영 시간,공휴일 운영 시간,전화번호,연계 상태,위도,경도
도봉산역 공영주차장(시),도봉구 도봉동 288-19,NW,358,170,5,170,5,12200,352,2024-10-02 14:21:31,0000 ~ 2400,0000 ~ 2400,0000 ~ 2400,02)2290-6047 ,20분,37.68972069,127.04483862
도봉산 공영주차장(시),도봉구 도봉동 282-26,NW,142,170,5,170,5,12200,140,2024-10-02 14:21:31,0800 ~ 2200,0800 ~ 2200,0800 ~ 2200,010-4927-3981,20분,37.6876442,127.04066026
현대성우아파트,도봉구 도봉동 642-0 ,BS,228,1000,30,500,15,10000,228,2024-10-02 14:22:12,0000 ~ 2400,0000 ~ 2400,0000 ~ 2400,02-3491-8954,20분,37.676229,127.047725
당고개위 공영주차장(시),노원구 상계동 111-568,NS,23,260,5,260,5,0,5,2024-10-02 14:22:13,0900 ~ 2200,0900 ~ 2200,0900 ~ 2200,010-4927-3981,20분,37.67070279,127.08041836
도봉구청 부설주차장,도봉구 방학동 720-0 ,BP,310,0,60,250,5,0,295,2024-10-02 14:22:38,0900 ~ 1800,0900 ~ 1800,0000 ~ 2400,02-2091-2143,20분,37.6687158,127.04711546
거성학마을아파트,도봉구 방학동 701-15 ,BS,314,2000,30,1000,15,0,296,2024-10-02 14:22:08,0000 ~ 2400,0000 ~ 2400,0000 ~ 2400,02-3493-4115,20분,37.666646,127.039654
이안테라디움방학역오피스텔,도봉구 방학동 707-0 ,BS,170,1500,30,500,10,20000,170,2024-10-02 14:22:12,0000 ~ 2400,0000 ~ 2400,0000 ~ 2400,,20분,37.665784,127.043741
홈플러스 방학점,도봉구 방학동 707-7 ,BS,611,1000,10,1000,10,30000,154,2024-10-02 14:22:48,1000 ~ 2400,1000 ~ 2400,1000 ~ 2400,02-912-2080,20분,37.66482,127.043719
신한은행 방학동지점,도봉구 방학동 691-7 ,BS,24,0,15,2000,20,60000,26,2024-10-02 14:22:01,0000 ~ 2400,0000 ~ 2400,0000 ~ 2400,,20분,37.663147,127.036928
롯데백화점 노원점(별관) 주차장,노원구 상계동 714-0 ,BS,492,1000,30,1000,10,0,217,2024-10-02 14:20:00,1030 ~ 2000,1030 ~ 2030,1030 ~ 2030,02-905-2007,20분,37.655348,127.061802
롯데백화점 노원점(본관) 주차장,노원구 상계동 713-0 ,BS,488,1000,30,1000,10,,361,2024-10-02 14:20:00,1030 ~ 2000,1030 ~ 2030,1030 ~ 2030,02-950-2007,20분,37.654954,127.06086
LG전자베스트샵 쌍문본점,도봉구 쌍문동 692-0 ,BS,29,1000,10,1000,10,50000,29,2024-10-02 14:22:06,0000 ~ 2400,0000 ~ 2400,0000 ~ 2400,,20분,37.654867,127.037972
우이동 공영주차장(시),강북구 우이동 105-2,NW,82,,,,,80000,31,2024-10-02 14:22:28,0000 ~ 2400,0000 ~ 2400,0000 ~ 2400,02-944-3044,20분,37.65671789,127.01163698
정안빌딩,도봉구 쌍문동 508-1 ,BS,55,1000,30,1000,30,15000,55,2024-10-02 14:22:07,0000 ~ 2400,0000 ~ 2400,0000 ~ 2400,,20분,37.657457,127.01391
KT노원타워,노원구 상계동 723-0 ,BS,153,1000,30,1000,30,15000,138,2024-10-02 14:23:22,0800 ~ 2400,0800 ~ 2400,0800 ~ 2400,,20분,37.65445795,127.06369619
씨드큐브창동,도봉구 창동 1-28 ,BS,961,2000,30,1000,10,30000,310,2024-10-02 14:21:35,0000 ~ 2400,0000 ~ 2400,0000 ~ 2400,02-6077-8780,20분,37.65439,127.049764
창동역(서) 공영주차장(시),도봉구 창동 330-0,NW,106,260,5,260,5,18700,87,2024-10-02 14:22:51,0000 ~ 2400,0000 ~ 2400,0000 ~ 2400,010-4927-3981,20분,37.65237042,127.04567683
상계백병원 주차장,노원구 상계동 761-1 ,BS,349,2000,31,500,10,30000,297,2024-10-02 14:23:26,0000 ~ 2400,0000 ~ 2400,0000 ~ 2400,02-950-4809,20분,37.648654,127.063009
더블유 Tmap 주차장(민영),도봉구 쌍문동 96-24,NP,18,2000,30,20000,30,40000,0,2024-10-02 14:23:22,0000 ~ 2400,0000 ~ 2400,0000 ~ 2400,,20분,37.64775334,127.03373409
서울시립과학관 부설주차장,노원구 하계동 21-0 ,BP,114,150,5,150,5,14400,42,2024-10-02 14:23:43,0900 ~ 1800,0900 ~ 1800,0900 ~ 1800,02-534-3837,20분,37.641981,127.077432
2001아울렛 중계점,노원구 중계동 509-0 ,BS,263,0,30,1000,10,,196,2024-10-02 14:23:12,1000 ~ 2200,1000 ~ 2200,1000 ~ 2200,02-948-2001,20분,37.64129794,127.06801938
가오리 공영주차장(구),강북구 수유동 349-3,NW,120,150,5,150,5,10000,82,2024-10-02 14:22:56,0000 ~ 2400,0000 ~ 2400,0000 ~ 2400,02-944-3046,20분,37.64160736,127.01498164
홈플러스 중계점,노원구 중계동 509-2,BS,710,1000,10,1000,10,30000,76,2024-10-02 14:23:54,1000 ~ 2400,1000 ~ 2400,1000 ~ 2400,02-986-2080,20분,37.639866,127.068575
수송초등학교 공영주차장(구),강북구 번동 456-0,NW,185,200,5,200,5,10000,120,2024-10-02 14:23:55,0000 ~ 0000,0000 ~ 0000,0000 ~ 0000,02-944-3036,20분,37.63709333,127.03300942
시범 공영주차장(구),강북구 수유동 190-11,NW,45,250,5,250,5,20000,35,2024-10-02 14:23:03,0800 ~ 2200,0800 ~ 2200,0900 ~ 1800,02-944-3029,20분,37.64005648,127.02595849
에피소드수유838,강북구 수유동 740-0 ,BS,558,1000,15,1000,15,20000,558,2024-10-02 14:23:26,0000 ~ 2400,0000 ~ 2400,0000 ~ 2400,,20분,37.636932,127.023307
구파발역 공영주차장(시),은평구 진관동 66-30,NW,399,170,5,170,5,12200,426,2024-10-02 14:23:31,0000 ~ 2400,0000 ~ 2400,0000 ~ 2400,02-2290-6088,20분,37.63800702,126.91932176
롯데몰 은평점 주차장,은평구 진관동 63-0 ,BS,1514,0,30,1000,30,0,1016,2024-10-02 14:20:01,0000 ~ 2400,0000 ~ 2400,0000 ~ 2400,02-2674-0000,20분,37.6374717811,126.91783905
노원을지대학교병원 주차장,노원구 하계동 280-1,BS,337,2000,31,500,10,15000,283,2024-10-02 14:24:08,0000 ~ 2400,0000 ~ 2400,0000 ~ 2400,02-970-8441,20분,37.63642,127.070002
인수동공영주차장(구),강북구 수유동 126-0,NW,89,200,5,200,5,10000,63,2024-10-02 14:23:48,0000 ~ 2400,0000 ~ 2400,0000 ~ 2400,02-944-3045,20분,37.63608367,127.01844991
LG전자베스트샵 노원본점,노원구 공릉동 323-1 ,BS,25,1000,10,1000,10,30000,25,2024-10-02 14:23:23,0000 ~ 2400,0000 ~ 2400,0000 ~ 2400,,20분,37.628515,127.071146
희성프라자,노원구 월계동 321-2 ,BS,113,500,10,500,10,30000,25,2024-10-02 14:24:21,0000 ~ 2400,0000 ~ 2400,0000 ~ 2400,,20분,37.63091732,127.06104087
미아동공영주차장(구),강북구 미아동 222-100,NW,155,150,5,150,5,10000,4,2024-10-02 14:23:45,0000 ~ 2400,0000 ~ 2400,0000 ~ 2400,02-944-3048,20분,37.6285679,127.02235964
수유프라자,강북구 수유동 63-0,BS,51,1000,30,1000,30,30000,51,2024-10-02 14:23:16,0000 ~ 2400,0000 ~ 2400,0000 ~ 2400,,20분,37.631703,127.02348
우리은행 미아역지점,강북구 미아동 207-1 ,BS,18,1000,20,1000,20,30000,18,2024-10-02 14:23:19,0000 ~ 2400,0000 ~ 2400,0000 ~ 2400,,20분,37.62777652,127.02513238
수유일공원공영주차장(구),강북구 수유동 605-407,NW,91,200,5,200,5,10000,43,2024-10-02 14:24:16,0000 ~ 2400,0000 ~ 2400,0000 ~ 2400,02-944-3042,20분,37.63061186,127.01743071
이마트월계점,노원구 월계동 333-1 ,BS,1006,500,10,500,10,30000,452,2024-10-02 14:24:17,1000 ~ 2300,1000 ~ 2300,1000 ~ 2300,,20분,37.62745359,127.06201533
번동 햇살 주차장(구),강북구 번동 148-380,NW,187,150,5,150,5,10000,101,2024-10-02 14:24:16,0000 ~ 2400,0000 ~ 2400,0000 ~ 2400,02-944-3044,20분,37.62509512,127.03343189
냉천길 공영주차장(구),강북구 미아동 756-1,NW,103,200,5,200,5,10000,54,2024-10-02 14:24:00,0000 ~ 2400,0000 ~ 2400,0000 ~ 2400,02-944-3040,20분,37.62400561,127.01953853
롯데마트 삼양점,강북구 미아동 1359-0 ,BS,233,1500,30,1500,30,30000,197,2024-10-02 14:23:21,0000 ~ 2400,0000 ~ 2400,0000 ~ 2400,,20분,37.62561503,127.01770989
구세군길 공영주차장(무인)(구),강북구 미아동 791-1360,NW,87,150,5,150,5,10000,46,2024-10-02 14:24:37,0000 ~ 2400,0000 ~ 2400,0000 ~ 2400,02-944-3036,20분,37.62617605,127.01344244
꿈의숲요양병원,강북구 번동 105-1,BS,73,0,20,500,10,20000,73,2024-10-02 14:24:41,0000 ~ 2400,0000 ~ 2400,0000 ~ 2400,,20분,37.620514,127.044938
오패산공영주차장(구),강북구 미아동 133-100,NW,76,150,5,150,5,10000,31,2024-10-02 14:24:21,0000 ~ 2400,0000 ~ 2400,0000 ~ 2400,,20분,37.6221541,127.03114725
대지시장길 공영주차장(구),강북구 미아동 703-8,NW,47,200,5,200,5,,47,2024-10-02 14:24:24,0000 ~ 2400,0000 ~ 2400,0000 ~ 2400,02-944-3035,20분,37.62016376,127.02031635
삼양마을공원지하공영주차장(구),강북구 미아동 748-2,NW,95,200,5,200,5,10000,52,2024-10-02 14:24:39,0000 ~ 2400,0000 ~ 2400,0000 ~ 2400,02-944-3047,20분,37.62274538,127.01842794
홈플러스 신내점,중랑구 신내동 645-0,BS,393,1000,10,1000,10,30000,373,2024-10-02 14:24:54,1000 ~ 2400,1000 ~ 2400,1000 ~ 2400,02-2024-8000,20분,37.615743,127.093825
석계역 공영주차장(시),노원구 월계동 50-9,NW,70,260,5,260,5,18700,61,2024-10-02 14:24:51,0000 ~ 2400,0000 ~ 2400,0000 ~ 2400,010-4927-3981,20분,37.615292,127.062997
LG전자베스트샵 강북본점,강북구 미아동 330-15,BS,34,0,10,2000,10,30000,34,2024-10-02 14:24:49,0000 ~ 2400,0000 ~ 2400,0000 ~ 2400,,20분,37.618662,127.028891
도봉로 15길 공영주차장(시),강북구 미아동 458-7,NS,16,200,5,200,5,0,14,2024-10-02 14:24:53,0900 ~ 1800,0000 ~ 0000,0000 ~ 0000,010-4927-3981,20분,37.61695866,127.0279473
송천동공영주차장(구),강북구 미아동 439-138,NW,59,150,5,150,5,10000,26,2024-10-02 14:24:52,0000 ~ 2400,0000 ~ 2400,0000 ~ 2400,02-944-3049,20분,37.61458475,127.0251644
서울의료원 주차장,중랑구 신내동 316-0 ,BP,806,0,20,300,10,,791,2024-10-02 14:24:02,0000 ~ 2400,0000 ~ 2400,0000 ~ 2400,02-2276-8990,20분,37.612879,127.099193
송중동 공영주차장(구),강북구 미아동 48-1,NW,53,200,5,200,5,10000,50,2024-10-02 14:25:01,0000 ~ 2400,0000 ~ 2400,0000 ~ 2400,02-944-3038,20분,37.61165492,127.03363616
롯데백화점[미아점] 지하주차장,강북구 미아동 70-6 ,BS,485,0,30,1000,10,,234,2024-10-02 14:20:00,0800 ~ 2200,0800 ~ 2200,0800 ~ 2200,02-944-1862,20분,37.61417653,127.03055539
신세계 이마트미아점,성북구 길음동 25-2 ,BS,83,1000,10,1000,10,50000,117,2024-10-02 14:25:12,0700 ~ 2300,0700 ~ 2300,0700 ~ 2300,,20분,37.61086046,127.02974197
한화생명 불광동사옥,은평구 불광동 272-51 ,BS,217,1500,30,500,10,0,126,2024-10-02 14:25:06,0000 ~ 2400,0000 ~ 2400,0000 ~ 2400,02-359-1134,20분,37.611843,126.92932
베누스타 주차장,성북구 길음동 22-1 ,BS,50,2000,30,500,10,0,50,2024-10-02 14:24:36,0000 ~ 2400,0000 ~ 2400,0000 ~ 2400,,20분,37.60933538,127.02949836
성북힐스테이트 주차장,성북구 하월곡동 88-64 ,BS,70,0,10,500,10,25000,70,2024-10-02 14:24:43,0000 ~ 2400,0000 ~ 2400,0000 ~ 2400,,20분,37.606535,127.030397
성북힐스테이트아파트,성북구 하월곡동 88-957,BS,75,0,10,500,10,25000,75,2024-10-02 14:24:43,0000 ~ 2400,0000 ~ 2400,0000 ~ 2400,,20분,37.606548,127.029027
현대백화점 미아점 주차장,성북구 길음동 20-1 ,BS,600,0,30,500,10,,185,2024-10-02 14:25:20,0800 ~ 2200,0000 ~ 0000,0000 ~ 0000,02-2117-3155,20분,37.60838767,127.02877104
JR메디컬센터타워 주차장,성북구 정릉동 408-3 ,BS,32,2000,30,1000,10,30000,32,2024-10-02 14:24:36,0000 ~ 2400,0000 ~ 2400,0000 ~ 2400,02-942-6780,20분,37.60736694,127.01009949
서울기록원 부설주차장,은평구 녹번동 7-1 ,BP,86,250,5,250,5,24000,22,2024-10-02 14:24:29,0000 ~ 2400,0000 ~ 2400,0000 ~ 2400,02-1522-0741,20분,37.607239,126.934435
대명프라자,중랑구 신내동 502-5,BS,40,1500,30,1500,30,30000,40,2024-10-02 14:24:42,0000 ~ 2400,0000 ~ 2400,0000 ~ 2400,010-8705-5638,20분,37.601777,127.096903
홈플러스 월곡점,성북구 하월곡동 46-73 ,BS,658,1000,10,1000,10,30000,429,2024-10-02 14:25:34,1000 ~ 2400,1000 ~ 2400,1000 ~ 2400,02-3669-8000,20분,37.601636,127.040355
LG전자베스트샵 은평점,은평구 응암동 86-25,BS,9,2000,30,1000,15,40000,9,2024-10-02 14:24:46,0000 ~ 2400,0000 ~ 2400,0000 ~ 2400,02--,20분,37.601228,126.924603
이마트 은평점[은평이마트점],은평구 응암동 89-21 ,BS,598,1000,10,1000,10,,253,2024-10-02 14:25:37,1000 ~ 2300,1000 ~ 2300,1000 ~ 2300,,20분,37.60079507,126.92066234
진흥로 공영주차장(시),은평구 역촌동 41-8,NS,14,200,5,200,5,,9,2024-10-02 14:25:34,0900 ~ 1800,0000 ~ 0000,0000 ~ 0000,010-9381-8004,20분,37.60431077,126.92167204
러스크서울병원[망우동 4호점],중랑구 망우동 207-2 ,BS,89,2000,30,2000,30,30000,35,2024-10-02 14:25:43,0000 ~ 2400,0000 ~ 2400,0000 ~ 2400,02-1588-5783,20분,37.600071,127.104311
다이소 망우2호점,중랑구 망우동 470-14,BS,13,1500,30,1500,30,15000,13,2024-10-02 14:24:35,0000 ~ 2400,0000 ~ 2400,0000 ~ 2400,,20분,37.599122,127.098381
이마트 상봉점,중랑구 망우동 506-1 ,BS,579,1000,10,1000,10,20000,2,2024-10-02 14:25:41,1000 ~ 2300,1000 ~ 2300,1000 ~ 2300,,20분,37.59643854,127.09351851
휘경메디컬프라자,동대문구 휘경동 71-1,BS,109,2000,30,1000,15,40000,109,2024-10-02 14:24:44,0000 ~ 2400,0000 ~ 2400,0000 ~ 2400,,20분,37.59178,127.066602
공유) 성북구 도담도담 주차장(구),성북구 성북동 232-13,NW,7,1200,60,600,30,,2,2024-10-02 14:21:04,0000 ~ 2359,0000 ~ 2359,0000 ~ 2359,02-1661-5806,20분,37.594584,126.993775
JS빌딩 주차장,동대문구 휘경동 42-23 ,BS,24,1500,30,500,10,20000,24,2024-10-02 14:25:56,0000 ~ 2400,0000 ~ 2400,0000 ~ 2400,,20분,37.59098817,127.06438783
돈암동일하이빌 주차장,성북구 동소문동5가 120-0 ,BS,123,2000,30,2000,30,0,123,2024-10-02 14:25:53,0000 ~ 2400,0000 ~ 2400,0000 ~ 2400,,20분,37.59164441,127.01442238
녹색병원 주차장,중랑구 면목동 568-1,BS,80,1500,30,500,10,0,82,2024-10-02 14:24:00,0000 ~ 2400,0000 ~ 0000,0000 ~ 0000,02-1522-0741,20분,37.583909,127.086374
상암오밸리스크1차,마포구 상암동 1734-0,BS,465,1500,30,1500,30,20000,465,2024-10-02 14:26:04,0000 ~ 2400,0000 ~ 2400,0000 ~ 2400,,20분,37.587104,126.883357
강서1주차장[개화나들목 앞],강서구 방화동 18-1 ,BP,53,1000,30,200,10,10000,18,2024-10-02 14:26:03,0900 ~ 2100,0900 ~ 2100,0900 ~ 2100,,20분,37.58522128,126.81982059
제이앤지산 주차장,동대문구 장안동 94-27 ,BS,114,900,30,300,10,10000,95,2024-10-02 14:25:58,0000 ~ 2400,0000 ~ 2400,0000 ~ 2400,,20분,37.58151728,127.07070593
롯데백화점 청량리점 주차장,동대문구 전농동 588-1 ,BS,1531,1000,30,1000,10,0,552,2024-10-02 14:20:00,0000 ~ 2359,0000 ~ 2359,0000 ~ 2359,02-3707-2350,20분,37.581328,127.049055
두산베어스타워,동대문구 용두동 138-41,BS,110,2000,30,2000,30,30000,110,2024-10-02 14:26:04,0000 ~ 2400,0000 ~ 2400,0000 ~ 2400,,20분,37.578574,127.03242
국립현대미술관 서울관,종로구 소격동 165-0 ,BP,384,3000,60,500,10,20000,259,2024-10-02 14:26:48,0800 ~ 2300,0800 ~ 2300,0800 ~ 2300,02-3701-9841~4,20분,37.57951713,126.98059114
SBS프리즘 타워주차장,마포구 상암동 1607-1 ,BS,196,0,30,500,10,0,164,2024-10-02 14:25:26,0000 ~ 2400,0000 ~ 2400,0000 ~ 2400,,20분,37.57970504,126.89280744
디디엠씨(DDMC) 주차장,마포구 상암동 1610-0 ,BS,715,0,0,500,10,22000,601,2024-10-02 14:26:39,0000 ~ 2400,0000 ~ 2400,0000 ~ 2400,,20분,37.57840939,126.89298914
엠비씨 씨앤아이 파크엠(MBC C&I PARK M),마포구 상암동 1615-0 ,BS,631,1500,10,500,10,30000,396,2024-10-02 14:25:52,0000 ~ 2400,0000 ~ 2400,0000 ~ 2400,,20분,37.57858093,126.89427368
(주)우리기술 사옥,마포구 상암동 1593-0 ,BS,159,500,10,500,10,,131,2024-10-02 14:26:11,0000 ~ 2400,0000 ~ 2400,0000 ~ 2400,,20분,37.58139385,126.887447
상암 더팬빌딩 주차장[마포 상암점],마포구 상암동 1592-0 ,BS,120,500,10,500,10,0,114,2024-10-02 14:26:48,0000 ~ 2400,0000 ~ 2400,0000 ~ 2400,,20분,37.58162041,126.88706131
장안2동 공영주차장(시),동대문구 장안동 286-9,NW,80,130,5,130,5,9300,63,2024-10-02 14:26:52,0000 ~ 2400,0000 ~ 2400,0000 ~ 2400,02-2290-6417,20분,37.5782752,127.07061896
LG전자베스트샵 용두점,동대문구 용두동 29-6,BS,27,3000,10,3000,10,80000,27,2024-10-02 14:26:08,0000 ~ 2400,0000 ~ 2400,0000 ~ 2400,,20분,37.575415,127.0386
홈플러스 동대문점,동대문구 용두동 33-1,BS,669,1000,10,1000,10,30000,356,2024-10-02 14:26:59,1000 ~ 2400,1000 ~ 2400,1000 ~ 2400,02-2173-8000,20분,37.574439,127.038774
동대문베네스트어반라이프,동대문구 용두동 100-5 ,BS,131,1000,30,1000,30,30000,131,2024-10-02 14:26:04,0000 ~ 2400,0000 ~ 2400,0000 ~ 2400,,20분,37.577858,127.033597
동의보감타워,동대문구 용두동 787-0 ,BS,153,1500,30,1500,30,0,153,2024-10-02 14:26:07,0000 ~ 2400,0000 ~ 2400,0000 ~ 2400,,20분,37.577816,127.037717
홍익대학교 대학로캠퍼스,종로구 연건동 128-8 ,BS,418,3000,30,2000,20,40000,418,2024-10-02 14:25:59,0000 ~ 2400,0000 ~ 2400,0000 ~ 2400,02-3275-3942,20분,37.576526,127.001474
경복궁 주차장,종로구 세종로 1-1 ,BS,266,3000,120,800,10,0,208,2024-10-02 14:26:45,0000 ~ 0000,0000 ~ 0000,0000 ~ 0000,02-736-9536,20분,37.576926,126.9791106
케이트윈타워,종로구 중학동 19-0 ,BS,402,3000,30,1000,10,50000,380,2024-10-02 14:27:00,0000 ~ 2400,0000 ~ 2400,0000 ~ 2400,02-1899-7275,20분,37.574719,126.979023
트윈트리타워 주차장,종로구 중학동 14-0 ,BS,266,3000,30,1000,10,,185,2024-10-02 14:20:02,0000 ~ 2400,0000 ~ 2400,0000 ~ 2400,02-1644-8830,20분,37.57542635,126.9801813
적선동 주차장(시),종로구 적선동 140-0,NW,28,8100,120,680,5,0,19,2024-10-02 14:26:51,0900 ~ 1900,0900 ~ 1900,0900 ~ 1900,02-2264-4895,20분,37.57449014,126.97418586
상암1 공영주차장(구),마포구 상암동 1267-1,NW,213,200,5,200,5,,134,2024-10-02 14:27:04,0000 ~ 2400,0000 ~ 2400,0000 ~ 2400,02-300-5046,20분,37.577281,126.897236
방화역(동) 공영주차장(시),강서구 방화동 830-4,NW,67,170,5,170,5,12200,881,2024-10-02 14:26:51,0800 ~ 2100,0800 ~ 2100,0800 ~ 2100,010-9381-8004,20분,37.57730116,126.81331479
방화역(서) 공영주차장(시),강서구 방화동 829-1,NW,69,170,5,170,5,12200,34,2024-10-02 14:26:51,0800 ~ 2100,0800 ~ 2100,0800 ~ 2100,010-9381-8004,20분,37.57757395,126.81217459
개화역 공영주차장(시),강서구 개화동 664-0,NW,483,170,5,170,5,12200,483,2024-10-02 14:26:51,0000 ~ 2400,0000 ~ 2400,0000 ~ 2400,02-2290-6312,20분,37.57798421,126.79821222
중곡3동공영주차장(구),광진구 중곡동 195-1,NW,162,150,5,150,5,72000,162,2024-10-02 14:27:10,0000 ~ 2400,0000 ~ 0000,0000 ~ 0000,02-2049-4596,20분,37.56993873,127.08469308
장안1동 공영주차장(시),동대문구 장안동 392-3,NW,71,130,5,130,5,9300,57,2024-10-02 14:26:51,0000 ~ 2400,0000 ~ 2400,0000 ~ 2400,02-3405-4598,20분,37.56941,127.066994
공유) 04-16(구),성동구 마장동 768-2 마장로 39나길,NS,16,900,30,900,30,10000,14,2024-10-02 14:19:14,0830 ~ 1900,0830 ~ 1900,0830 ~ 1900,02-2204-7970,20분,37.56987,127.04394
공유) 04-17(구),성동구 마장동 767-4,NS,17,900,30,900,30,10000,14,2024-10-02 14:19:14,0830 ~ 1900,0830 ~ 1900,0830 ~ 1900,02-2204-7970,20분,37.56939,127.04483
마장축산물시장 서문(건물) 공영주차장(구),성동구 마장동 522-1,NW,129,250,5,250,5,,104,2024-10-02 14:26:44,0000 ~ 2400,0000 ~ 2400,0000 ~ 2400,02-2204-7970,20분,37.5704876,127.03832741
마장축산물시장(건물) 공영주차장(구),성동구 마장동 525-1,NW,117,250,5,250,5,,96,2024-10-02 14:20:47,0000 ~ 2400,0000 ~ 2400,0000 ~ 2400,02-2204-7970,20분,37.571538,127.039926
공유) 04-01(구),성동구 하왕십리동 258-0,NS,22,900,30,900,30,10000,22,2024-10-02 14:19:12,0830 ~ 1900,0830 ~ 1900,0830 ~ 1900,02-2204-7970,20분,37.5696,127.03263
공유) 04-02(구),성동구 마장동 456-3,NS,25,900,30,900,30,10000,25,2024-10-02 14:19:19,0830 ~ 1900,0830 ~ 1900,0830 ~ 1900,02-2204-7970,20분,37.5707,127.03429
공유) 04-03(구),성동구 마장동 450-65,NS,8,900,30,900,30,10000,7,2024-10-02 14:19:15,0830 ~ 1900,0830 ~ 1900,0830 ~ 1900,02-2204-7970,20분,37.571558107,127.03643021
공유) 04-04(구),성동구 마장동 460-22,NS,9,900,30,900,30,10000,9,2024-10-02 14:19:14,0830 ~ 1900,0830 ~ 1900,0830 ~ 1900,02-2204-7970,20분,37.57117,127.03504624
공유) 04-23(구),성동구 마장동 459-6,NS,15,900,30,900,30,10000,11,2024-10-02 14:19:16,0830 ~ 1900,0830 ~ 1900,0830 ~ 1900,02-2204-7970,20분,37.56944669,127.0360172
마장동(건물) 공영주차장(구),성동구 마장동 463-2,NW,54,50,5,50,5,,47,2024-10-02 14:27:11,0000 ~ 2400,0000 ~ 2400,0000 ~ 2400,02-2204-7970,20분,37.56993875,127.03514519
청계8가(남) 공영주차장(시),성동구 상왕십리동 12-47,NS,72,450,5,450,5,0,20,2024-10-02 14:27:03,0900 ~ 1900,0900 ~ 1500,0000 ~ 0000,02-2274-2009,20분,37.5703894,127.02698474
청계8가(북) 공영주차장(시),동대문구 신설동 109-2,NS,31,450,5,450,5,0,12,2024-10-02 14:26:52,0900 ~ 1900,0900 ~ 1500,0000 ~ 0000,02-2274-2009,20분,37.57063582,127.02824815
신설동 공영주차장(시),동대문구 신설동 114-29,NW,79,260,5,260,5,18700,72,2024-10-02 14:26:51,0900 ~ 1900,0900 ~ 1900,0900 ~ 1900,02-2232-6096,20분,37.57252061,127.02425684
청계7가 공영주차장(시),종로구 창신동 436-87,NS,39,450,5,450,5,0,14,2024-10-02 14:26:53,0900 ~ 1900,0900 ~ 1500,0000 ~ 0000,010-8337-4293,20분,37.57217485,127.02225792
청계8가 공영주차장(시),중구 흥인동 162-1 0,NS,19,500,5,500,5,0,10,2024-10-02 14:27:05,0900 ~ 1900,0900 ~ 1500,0000 ~ 0000,010-8337-4293,20분,37.57002852,127.01735719
청계6(동평화) 공영주차장(시),중구 신당동 217-91 0,NS,6,450,5,450,5,0,4,2024-10-02 14:27:02,0900 ~ 0100,0900 ~ 1500,0000 ~ 0000,010-6312-2020,20분,37.56958258,127.01316308
청계6(북) 공영주차장(시),종로구 종로6가 289-49,NS,28,450,5,450,5,0,4,2024-10-02 14:26:57,0900 ~ 0100,0900 ~ 1500,0000 ~ 0000,010-8337-4293,20분,37.56999731,127.0152055
청계6(신평화시장앞) 공영주차장(시),중구 신당동 217-91 0,NS,7,450,5,450,5,0,3,2024-10-02 14:26:55,0900 ~ 1900,0900 ~ 1500,0000 ~ 0000,010-8337-4293,20분,37.569577,127.011183
청계6(청평화) 공영주차장(시),중구 신당동 217-91 0,NS,5,450,5,450,5,0,4,2024-10-02 14:27:02,0000 ~ 2400,0000 ~ 2400,0000 ~ 0000,02-2252-8036,20분,37.56960075,127.01521402
서울디자인재단 본관 주차장,종로구 종로6가 70-6 ,BP,32,1000,25,1000,10,0,23,2024-10-02 14:27:11,0000 ~ 2400,0000 ~ 2400,0000 ~ 2400,02-2096-0153,20분,37.57288249,127.00816125
청계5(남) 공영주차장(시),중구 을지로6가 17-442 0,NS,5,750,5,750,5,0,2,2024-10-02 14:26:56,0900 ~ 1900,0900 ~ 1500,0000 ~ 0000,010-8337-4293,20분,37.56951246,127.00750172
청계5(방산동) 공영주차장(시),중구 방산동 52-1,NS,36,750,5,750,5,0,9,2024-10-02 14:26:56,0900 ~ 0100,0900 ~ 1500,0000 ~ 0000,010-8337-4293,20분,37.56948283,127.00601836
청계5(북1) 공영주차장(시),종로구 종로5가 458-2,NS,25,750,5,750,5,0,11,2024-10-02 14:26:56,0900 ~ 1900,0900 ~ 1500,0000 ~ 0000,010-8337-4293,20분,37.56988704,127.00756704
청계5가 공영주차장(시),중구 을지로6가 17-442 0,NS,20,750,5,750,5,0,8,2024-10-02 14:27:02,0900 ~ 1900,0900 ~ 1500,0000 ~ 0000,02-2265-3531,20분,37.56958981,127.00904766
우리은행ATM 종로5가지점,종로구 종로5가 398-3,BS,13,3000,30,2000,20,30000,13,2024-10-02 14:27:17,0000 ~ 2400,0000 ~ 2400,0000 ~ 2400,0,20분,37.570031,127.001665
청계3(남) 공영주차장(시),중구 주교동 51-3,NS,20,750,5,750,5,0,14,2024-10-02 14:26:55,0900 ~ 1900,0900 ~ 1500,0000 ~ 0000,010-8337-4293,20분,37.56934864,127.00128399
청계3(북1) 공영주차장(시),종로구 예지동 140-1,NS,19,750,5,750,5,0,10,2024-10-02 14:26:55,0900 ~ 1900,0900 ~ 1500,0000 ~ 0000,010-8337-4293,20분,37.56967214,127.00112596
청계5(동호로_북) 공영주차장(시),종로구 종로5가 458-2,NS,6,750,5,750,5,0,2,2024-10-02 14:26:56,0900 ~ 0100,0900 ~ 1500,0000 ~ 0000,010-8337-4293,20분,37.57028463,127.0021223
동순라길(종묘) 관광버스전용 주차장(시),종로구 인의동 107-1,NS,5,0,0,0,0,0,2,2024-10-02 14:27:04,0000 ~ 0000,0000 ~ 0000,0000 ~ 0000,02-2290-6449,20분,37.5730121,126.99677676
종로플레이스 주차장,종로구 인의동 28-2 ,BS,202,1000,10,1000,10,30000,157,2024-10-02 14:26:50,0000 ~ 2359,0000 ~ 2359,0000 ~ 2359,010-7127-9611,20분,37.572882,126.998496
종묘주차장 공영주차장(시),종로구 훈정동 2-0,NW,1317,400,5,400,5,28800,1265,2024-10-02 14:26:51,0000 ~ 2400,0000 ~ 2400,0000 ~ 2400,02-2290-6166,20분,37.57150398,126.99496888
청계3(창경궁로_북1) 공영주차장(시),종로구 예지동 140-1,NS,11,750,5,750,5,0,3,2024-10-02 14:26:55,0900 ~ 1900,0900 ~ 1500,0000 ~ 0000,010-8337-4293,20분,37.57045874,126.99733225
하나손해보험빌딩 주차장,종로구 인의동 112-1 ,BS,82,3000,30,1000,10,20000,56,2024-10-02 14:26:35,0600 ~ 2200,0600 ~ 2200,0600 ~ 2200,,20분,37.57278965,126.99718284
탑골공원 관광버스전용 주차장(시),종로구 종로2가 38-4,NS,2,0,0,0,0,0,1,2024-10-02 14:27:04,0000 ~ 0000,0000 ~ 0000,0000 ~ 0000,02)2290-6449,20분,37.57134087,126.98776281
센트로폴리스,종로구 공평동 17-0 ,BS,560,2000,20,2000,20,30000,409,2024-10-02 14:24:56,0000 ~ 2400,0000 ~ 2400,0000 ~ 2400,02-1688-1054,20분,37.571631,126.983431
종로타워 주차장,종로구 종로2가 6-0,BS,273,2000,20,1000,10,30000,213,2024-10-02 14:27:00,0000 ~ 2400,0000 ~ 2400,0000 ~ 2400,070-4282-2048,20분,37.57045278,126.98383892
그랑서울 주차장,종로구 청진동 70-0 ,BS,754,1000,10,1000,10,40000,582,2024-10-02 14:27:13,0000 ~ 2400,0000 ~ 2400,0000 ~ 2400,02-2158-7993,20분,37.57107565,126.98138243
서울글로벌센터 공영주차장(시),종로구 서린동 63-0,NW,44,700,5,700,5,50400,35,2024-10-02 14:26:51,0900 ~ 1800,0000 ~ 0000,0000 ~ 0000,02-720-9862,20분,37.56983402,126.98150586
지타워 주차장,종로구 수송동 156-0 ,BS,95,3000,30,1500,10,50000,98,2024-10-02 14:20:02,0000 ~ 2400,0000 ~ 0000,0000 ~ 0000,02-1644-8830,20분,37.57267337,126.98104937
세종로 공영주차장(시),종로구 세종로 80-1,NW,1260,430,5,430,5,30900,596,2024-10-02 14:26:51,0000 ~ 2400,0000 ~ 2400,0000 ~ 2400,02-2290-6566,20분,37.57340269,126.97588429
문화비축기지주차장,마포구 성산동 670-0 ,BS,42,150,5,150,5,,28,2024-10-02 14:19:00,0900 ~ 2200,0900 ~ 2200,0900 ~ 2200,02-376-8412,20분,37.569477,126.8947403
가양라이품 공영주차장(시),강서구 가양동 1457-1,NW,38,170,5,170,5,12200,33,2024-10-02 14:26:51,0000 ~ 2400,0000 ~ 2400,0000 ~ 2400,02-2290-6144,20분,37.57155732,126.84165292
롯데슈퍼프레시 개화산점,강서구 방화동 533-9,BS,16,0,30,1000,20,40000,16,2024-10-02 14:27:24,0000 ~ 2400,0000 ~ 2400,0000 ~ 2400,,20분,37.572006,126.807753
개화산역 공영주차장(시),강서구 방화동 845-0,NW,321,170,5,170,5,12200,273,2024-10-02 14:26:51,0000 ~ 2400,0000 ~ 2400,0000 ~ 2400,02-2290-6064,20분,37.57224302,126.80518976
강일타워,강동구 강일동 675-1 ,BS,75,1000,20,1000,20,20000,75,2024-10-02 14:27:18,0000 ~ 2400,0000 ~ 2400,0000 ~ 2400,,20분,37.565628,127.173818
강일동 주차장(구),강동구 강일동 665-4,NW,90,150,5,150,5,,72,2024-10-02 14:27:26,0000 ~ 2400,0000 ~ 2400,0000 ~ 2400,02-427-6147,20분,37.565988,127.172313
알에프텍사옥,강동구 고덕동 98-12 ,BS,104,1500,30,500,10,0,104,2024-10-02 14:27:26,0000 ~ 2400,0000 ~ 2400,0000 ~ 2400,,20분,37.566055,127.160332
일화고덕비즈밸리,강동구 고덕동 345-1 ,BS,105,6000,30,2000,10,60000,68,2024-10-02 14:27:02,0000 ~ 2400,0000 ~ 2400,0000 ~ 2400,010-5303-0522,20분,37.5664681574946,127.16002106666565
실로암사우나 중곡점 주차장,광진구 중곡동 169-80 ,BS,65,1500,30,1500,30,20000,50,2024-10-02 14:27:00,0000 ~ 2400,0000 ~ 2400,0000 ~ 2400,02-3409-0386,20분,37.56907837,127.08555024
서희스타힐스아파트,동대문구 장안동 365-5 ,BS,250,4000,30,1000,10,100000,250,2024-10-02 14:27:18,0000 ~ 2400,0000 ~ 2400,0000 ~ 2400,,20분,37.569014,127.070344
한강훼미리아파트,동대문구 장안동 381-3,BS,116,1500,30,500,10,25000,116,2024-10-02 14:27:13,0000 ~ 2400,0000 ~ 2400,0000 ~ 2400,,20분,37.568597,127.06818
평화빌딩 주차장,동대문구 답십리동 530-16 ,BS,67,1500,30,1500,30,30000,67,2024-10-02 14:27:12,0000 ~ 2400,0000 ~ 2400,0000 ~ 2400,,20분,37.56559316,127.05576
공유) 04-15(구),성동구 마장동 772-2,NS,10,900,30,900,30,10000,7,2024-10-02 14:19:18,0830 ~ 1900,0830 ~ 1900,0830 ~ 1900,02-2204-7970,20분,37.56821,127.04407
공유) 04-18(구),성동구 마장동 790-1,NS,38,900,30,900,30,10000,34,2024-10-02 14:19:13,0830 ~ 1900,0830 ~ 1900,0830 ~ 1900,02-2204-7970,20분,37.56822,127.044732
공유) 04-19(구),성동구 마장동 792-0,NS,27,900,30,900,30,10000,24,2024-10-02 14:19:15,0830 ~ 1900,0830 ~ 1900,0830 ~ 1900,02-2204-7970,20분,37.56624917,127.04420328
공유) 04-50(구),성동구 마장동 777-3,NS,35,900,30,900,30,10000,34,2024-10-02 14:19:08,0830 ~ 1900,0830 ~ 1900,0830 ~ 1900,02-2204-7970,20분,37.567822435,127.04568922
공유) 04-55(구),성동구 마장동 829-0,NS,5,900,30,900,30,10000,4,2024-10-02 14:19:16,0830 ~ 1900,0830 ~ 1900,0830 ~ 1900,02-2204-7970,20분,37.566835292,127.04574031
공유) 05-09(구),성동구 사근동 293-7,NS,61,900,30,900,30,10000,54,2024-10-02 14:19:16,0830 ~ 1900,0830 ~ 1900,0830 ~ 1900,02-2204-7970,20분,37.565129533,127.0473239
공유) 20-21(구),성동구 용답동 158-4,NS,26,900,30,900,30,10000,18,2024-10-02 14:19:09,0830 ~ 1900,0830 ~ 1900,0830 ~ 1900,02-2204-7970,20분,37.569093775,127.04777598
공유) 04-12(구),성동구 마장동 514-2,NS,41,900,30,900,30,10000,36,2024-10-02 14:19:10,0830 ~ 1900,0830 ~ 1900,0830 ~ 1900,02-2204-7970,20분,37.568881178,127.03903734
공유) 04-14(구),성동구 마장동 769-3,NS,7,900,30,900,30,10000,8,2024-10-02 14:19:12,0830 ~ 1900,0830 ~ 1900,0830 ~ 1900,02-2204-7970,20분,37.566653123,127.04275488
공유) 04-49(구),성동구 마장동 797-15,NS,47,900,30,900,30,10000,38,2024-10-02 14:19:19,0830 ~ 1900,0830 ~ 1900,0830 ~ 1900,02-2204-7970,20분,37.565071333,127.0398581
공유) 03-01(구),성동구 홍익동 437-0,NS,27,900,30,900,30,10000,25,2024-10-02 14:19:12,0830 ~ 1900,0830 ~ 1900,0830 ~ 1900,02-2204-7970,20분,37.56803,127.03265
공유) 03-06(구),성동구 홍익동 364-0,NS,9,900,30,900,30,10000,5,2024-10-02 14:19:17,0830 ~ 1900,0830 ~ 1900,0830 ~ 1900,02-2204-7970,20분,37.5653,127.03475445
공유) 03-07(구),성동구 도선동 414-0,NS,9,900,30,900,30,10000,4,2024-10-02 14:19:11,0830 ~ 1900,0830 ~ 1900,0830 ~ 1900,02-2204-7970,20분,37.56506,127.03313
공유) 03-15(구),성동구 홍익동 101-2,NS,13,900,30,900,30,10000,10,2024-10-02 14:19:09,0830 ~ 1900,0830 ~ 1900,0830 ~ 1900,02-2204-7970,20분,37.56684871,127.03400015
공유) 04-24(구),성동구 마장동 497-2,NS,6,900,30,900,30,10000,5,2024-10-02 14:19:19,0830 ~ 1900,0830 ~ 1900,0830 ~ 1900,02-2204-7970,20분,37.56759,127.03447
공유) 06-22(구),성동구 행당동 345-0,NS,16,900,30,900,30,10000,12,2024-10-02 14:19:10,0830 ~ 1900,0830 ~ 1900,0830 ~ 1900,02-2204-7970,20분,37.565415888,127.03742434
공유) 03-10(구),성동구 홍익동 429-0,NS,9,900,30,900,30,10000,7,2024-10-02 14:19:15,0830 ~ 1900,0830 ~ 1900,0830 ~ 1900,02-2204-7970,20분,37.56773,127.03111
공유) 03-14(구),성동구 도선동 338-0,NS,6,900,30,900,30,10000,5,2024-10-02 14:19:15,0830 ~ 1900,0830 ~ 1900,0830 ~ 1900,02-2204-7970,20분,37.566139068,127.03115581
도선동(지하) 공영주차장(구),성동구 홍익동 369-0,NW,190,100,5,100,5,,186,2024-10-02 14:23:16,0000 ~ 2400,0000 ~ 2400,0000 ~ 2400,02-2204-7970,20분,37.565567,127.0316914
로얄주차장(민영),중구 황학동 2527-0,NP,80,1000,10,4000,60,30000,63,2024-10-02 14:27:00,0000 ~ 2400,0000 ~ 2400,0000 ~ 2400,02-2231-6922,20분,37.56645139,127.02178727
신당사거리 공영주차장(구),중구 신당동 110-1,NW,51,250,5,250,5,0,37,2024-10-02 14:27:31,0000 ~ 2400,0000 ~ 2400,2400 ~ 0000,02-2280-8368,20분,37.56512357,127.0170201
신당역 공영주차장(구),중구 신당동 140-29,NW,26,250,5,250,5,0,25,2024-10-02 14:25:22,0000 ~ 2400,0000 ~ 2400,0000 ~ 2400,02-2280-8368,20분,37.56535145,127.02069649
청계천두산위브더제니스상,중구 흥인동 13-1,BS,997,0,30,2000,30,50000,997,2024-10-02 14:27:17,0000 ~ 2400,0000 ~ 2400,0000 ~ 2400,,20분,37.56682,127.017092
황학어린이공원 지하주차장(구),중구 황학동 755-0,NW,113,200,5,200,5,,81,2024-10-02 14:27:04,0000 ~ 2400,0000 ~ 0000,0000 ~ 0000,02-2280-8368,20분,37.56754712,127.01813313
DDP동측(양쪽) 관광버스전용 주차장(시),중구 을지로7가 2-36 ,NS,20,0,0,0,0,0,16,2024-10-02 14:27:03,0000 ~ 0000,0000 ~ 0000,0000 ~ 0000,02-2290-6449,20분,37.56644898,127.0119162
DDP북측 마장로 관광버스전용 주차장(시),중구 신당동 222-3,NS,4,0,0,0,0,0,2,2024-10-02 14:27:03,0000 ~ 2400,0000 ~ 2400,0000 ~ 2400,02-2290-6449,20분,37.56836018,127.01048308
경찰공제회 신당동 무궁화회관,중구 신당동 193-29,BS,15,2000,30,2000,30,,11,2024-10-02 14:27:02,0000 ~ 2400,0000 ~ 2400,0000 ~ 2400,010-3379-6205,20분,37.56862,127.014787
남평화시장(구),중구 신당동 779-0,NS,31,500,5,500,5,0,0,2024-10-02 14:26:54,0000 ~ 2359,0000 ~ 2359,0000 ~ 2359,02-2280-8360,20분,37.569043,127.011648
동대문 공영주차장(시),중구 신당동 251-7,NW,1092,360,5,360,5,25900,281,2024-10-02 14:27:31,0000 ~ 2400,0000 ~ 2400,0000 ~ 2400,02)2254-4901 ,20분,37.56710187,127.01214106
동대문두산타워 주차장,중구 을지로6가 18-12 ,BS,855,0,10,700,10,0,255,2024-10-02 14:27:04,0000 ~ 2400,0000 ~ 2400,0000 ~ 2400,,20분,37.56881307,127.00877499
현대백화점 현대시티아울렛 동대문점,중구 을지로6가 17-2 ,BS,618,0,30,600,10,0,457,2024-10-02 14:27:29,1000 ~ 2400,0000 ~ 2400,0000 ~ 2400,02-2048-0042,20분,37.56859457,127.00775925
훈련원공원 옆(구),중구 을지로6가 18-200,NS,9,350,5,350,5,0,0,2024-10-02 09:04:42,1000 ~ 2000,1000 ~ 1600,0000 ~ 0000,02-2280-8360,2일,37.567805,127.005067
청계3(동호로) 공영주차장(시),중구 방산동 4-47 0,NS,12,750,5,750,5,0,6,2024-10-02 14:27:35,0900 ~ 1900,0900 ~ 1500,0000 ~ 0000,010-8337-4293,20분,37.56921838,127.00195247
청계5(동호로_남) 공영주차장(시),중구 방산동 4-47 0,NS,11,750,5,750,5,0,3,2024-10-02 14:27:36,0900 ~ 1900,0900 ~ 1500,0000 ~ 0000,010-8337-4293,20분,37.56912618,127.00222011
훈련원공원 공영주차장(시),중구 을지로5가 40-3,NW,873,550,5,550,5,39600,650,2024-10-02 14:27:31,0000 ~ 2400,0000 ~ 2400,0000 ~ 2400,02-3405-4597,20분,37.56740014,127.00352062
공유) 삼풍상가3구간(02~12)(구),중구 을지로4가 310-68 0,NS,11,1500,30,500,10,0,0,2024-10-02 11:26:30,0900 ~ 1900,0900 ~ 1500,0000 ~ 0000,02-3396-6264,2일,37.56615038,126.9957824
공유) 삼풍상가4구간(18~21)(구),중구 을지로4가 310-68 0,NS,4,1500,30,500,10,0,0,2024-10-02 11:41:02,0900 ~ 1900,0900 ~ 1500,0000 ~ 0000,02-3396-6264,2일,37.56517035,126.9954911
공유) 삼풍상가4구간(23~26)(구),중구 을지로4가 310-68,NS,4,1500,30,500,10,0,0,2024-10-02 13:57:43,0900 ~ 1900,0900 ~ 1500,0000 ~ 0000,02-3396-6264,2시간,37.56626933,126.9953819
배오개길 공영주차장(시),중구 예관동 22-1,NS,20,680,5,680,5,,11,2024-10-02 14:27:32,0900 ~ 1900,0900 ~ 1500,0000 ~ 0000,02-2274-2009,20분,37.56568137,126.99829135
삼풍넥서스빌딩,중구 을지로4가 310-68 ,BS,62,1000,10,1000,10,18000,62,2024-10-02 14:27:16,0000 ~ 2400,0000 ~ 2400,0000 ~ 2400,,20분,37.56612307,126.99559351
세운대림상가(동측)(구),중구 산림동 207-2,NS,22,500,5,500,5,0,14,2024-10-02 14:26:16,0900 ~ 1900,0900 ~ 1500,0000 ~ 0000,02-2280-8360,20분,37.5683313,126.9956424
세운대림상가(서측)(구),중구 산림동 207-1,NS,25,500,5,500,5,0,1,2024-10-02 14:09:21,0900 ~ 1900,0900 ~ 1500,0000 ~ 0000,02-2280-8360,20분,37.56827,126.995075
을지트윈타워 주차장,중구 을지로4가 323-0 ,BS,542,3000,30,1000,10,30000,457,2024-10-02 14:27:30,0000 ~ 2400,0000 ~ 2400,0000 ~ 2400,070-7119-1362,20분,37.566153,126.997339
청계2(북1) 공영주차장(시),종로구 관수동 91-4,NS,12,750,5,750,5,0,7,2024-10-02 14:27:34,0900 ~ 1900,0900 ~ 1500,0000 ~ 0000,010-8337-4293,20분,37.568689,126.994708
청계2(북2) 공영주차장(시),종로구 관수동 91-4,NS,9,750,5,750,5,0,3,2024-10-02 14:27:34,0900 ~ 1900,0900 ~ 1500,0000 ~ 0000,010-8337-4293,20분,37.56896653,126.99751818
청계3(창경궁로_남) 공영주차장(시),중구 주교동 123-1 0,NS,12,750,5,750,5,0,8,2024-10-02 14:27:34,0900 ~ 1900,0900 ~ 1500,0000 ~ 0000,010-8337-4293,20분,37.56837721,126.99794649
돈화문로 공영주차장(시),중구 을지로3가 296-24,NS,49,750,5,750,5,0,27,2024-10-02 14:27:32,0900 ~ 1900,0900 ~ 1500,0000 ~ 0000,02-2274-2009,20분,37.565641,126.992781
세종주차장(민영),종로구 관수동 155-1,NP,250,3000,30,3000,30,20000,250,2024-10-02 14:27:10,0000 ~ 2400,0000 ~ 2400,0000 ~ 2400,080-330-3600,20분,37.56901932,126.98920432
시그니쳐타워 주차장,중구 수표동 99-0 ,BS,436,3000,30,1000,10,30000,367,2024-10-02 14:20:02,0000 ~ 2400,0000 ~ 2400,0000 ~ 2400,02-1644-8830,20분,37.56753601,126.98849319
청계1(북) 공영주차장(시),종로구 관철동 13-14,NS,12,750,5,750,5,0,7,2024-10-02 14:27:33,0900 ~ 1900,0900 ~ 1500,0000 ~ 0000,010-8337-4293,20분,37.56831662,126.9893367
크리스탈스퀘어 주차장,중구 수표동 47-1 ,BS,69,3000,30,1000,10,30000,57,2024-10-02 14:27:01,0000 ~ 2400,0000 ~ 2400,0000 ~ 2400,02-6255-8100,20분,37.567672,126.989318
파인에비뉴,중구 을지로2가 203-0 ,BS,602,3000,30,1000,10,0,628,2024-10-02 14:27:39,0000 ~ 2400,0000 ~ 2400,0000 ~ 2400,02-6031-5107,20분,37.56572319,126.98872568
DGB금융센터,중구 다동 85-0 ,BS,85,3000,30,3000,30,40000,93,2024-10-02 14:27:12,0000 ~ 2400,0000 ~ 2400,0000 ~ 2400,,20분,37.568395,126.98235
관철동 공영주차장(시),종로구 관철동 13-14,NS,7,430,5,430,5,0,4,2024-10-02 14:27:38,0900 ~ 2200,0900 ~ 1400,0000 ~ 0000,02-738-0909,20분,37.56847403,126.98608025
동국제강 공영주차장(시),중구 삼각동 111-1,NW,13,700,5,700,5,50400,6,2024-10-02 14:27:37,0900 ~ 1900,0900 ~ 1900,0000 ~ 0000,010-8337-4293,20분,37.56733736,126.98343453
미래에셋센터원 주차장,중구 수하동 67-0 ,BS,763,3000,30,1000,10,40000,643,2024-10-02 14:25:54,0000 ~ 2400,0000 ~ 2400,0000 ~ 2400,02-6030-0105,20분,37.567448,126.985157
한국관광공사 옆(구),중구 다동 85-4,NS,9,600,5,600,5,0,4,2024-10-02 14:25:03,0900 ~ 2100,0900 ~ 1600,0000 ~ 0000,02-2280-8360,20분,37.568338,126.982009
뉴국제호텔 앞(구),중구 무교동 18-0,NS,18,600,5,600,5,0,7,2024-10-02 14:07:54,0900 ~ 2100,0900 ~ 1800,0000 ~ 0000,02-2280-8360,20분,37.568228,126.97805
다동쉼터(구),중구 다동 50-1,NS,7,500,5,500,5,0,0,2024-10-02 12:30:00,0800 ~ 2000,0800 ~ 1700,0000 ~ 0000,02-2280-8360,2시간,37.567908,126.979967
서울시청 본청사 주차장,중구 태평로1가 31-0 ,BP,101,0,10,1000,10,,69,2024-10-02 14:27:42,0900 ~ 2100,0000 ~ 0000,0000 ~ 0000,02-2133-5981,20분,37.56658706,126.97825111
코오롱빌딩 옆(구),중구 태평로1가 31-0,NS,10,600,5,600,5,0,6,2024-10-02 14:26:28,0900 ~ 2100,0900 ~ 1800,0000 ~ 0000,02-2280-8360,20분,37.5677975,126.978343
정동빌딩,중구 정동 15-5 ,BS,170,3000,30,1000,10,45000,170,2024-10-02 14:27:11,0000 ~ 2400,0000 ~ 2400,0000 ~ 2400,,20분,37.56750993,126.97089851
바비엥2오피스텔,중구 의주로1가 25-10 ,BS,637,1000,15,1000,15,25000,637,2024-10-02 14:27:17,0000 ~ 2400,0000 ~ 2400,0000 ~ 2400,,20분,37.56531,126.967965
이화여고 앞(구),중구 순화동 1-139,NS,13,250,5,250,5,0,1,2024-10-02 14:13:48,0900 ~ 2000,0900 ~ 1600,0000 ~ 0000,02-2280-8360,20분,37.565593,126.968315
상암월드시티,마포구 성산동 590-5,BS,171,2000,20,1000,10,30000,171,2024-10-02 14:27:20,0000 ~ 2400,0000 ~ 2400,0000 ~ 2400,,20분,37.565454,126.903534
마포구청(마포구종합행정타운),마포구 성산동 370-0 ,BP,356,0,60,500,10,0,385,2024-10-02 14:27:37,0800 ~ 1800,0000 ~ 0000,0000 ~ 0000,0503-7745-7837,20분,37.56633524,126.90189819
마포농수산물시장 공영주차장[마포구청역 1호점],마포구 성산동 533-1 ,BP,550,1000,30,500,10,20000,444,2024-10-02 14:27:43,0000 ~ 2400,0000 ~ 2400,0000 ~ 2400,02-1588-5783,20분,37.5651631,126.89797706
홈플러스 월드컵점,마포구 성산동 515-0 ,BS,771,1000,10,1000,10,30000,732,2024-10-02 14:27:44,1000 ~ 2400,1000 ~ 2400,1000 ~ 2400,02-312-2080,20분,37.56833,126.89859
마곡대방디엠시티2차,강서구 마곡동 776-0,BS,300,1000,30,1000,30,,300,2024-10-02 14:27:18,0000 ~ 2400,0000 ~ 2400,0000 ~ 2400,,20분,37.568517,126.839457
신방화역 공영주차장(시),강서구 마곡동 739-0,NW,199,170,5,170,5,12200,170,2024-10-02 14:27:31,0000 ~ 2400,0000 ~ 2400,0000 ~ 2400,02-3405-4581,20분,37.56706812,126.81757628
김포국제공항 국제선 지하주차장,강서구 방화동 886-9000 ,BP,1615,1000,30,500,15,18000,1117,2024-10-02 14:27:00,0000 ~ 2359,0000 ~ 2359,0000 ~ 2359,02-2660-2515,20분,37.564851,126.802117
보건복지행정타운,광진구 중곡동 30-80 ,BS,391,500,5,500,10,22000,230,2024-10-02 14:25:49,0000 ~ 2400,0000 ~ 2400,0000 ~ 2400,02-1899-7275,20분,37.56466,127.084522
경륜경정 장안지점 주차장,동대문구 장안동 462-0 ,BP,100,2000,30,2000,30,0,100,2024-10-02 14:27:12,0000 ~ 2400,0000 ~ 2400,0000 ~ 2400,,20분,37.56229166,127.0671915
두봉상가 주차장,동대문구 장안동 465-2 ,BS,27,1000,30,1000,30,48000,23,2024-10-02 14:27:16,0000 ~ 2400,0000 ~ 2400,0000 ~ 2400,,20분,37.5617818,127.06705264
공유) 20-11(구),성동구 용답동 9-9 ,NS,12,900,30,900,30,10000,7,2024-10-02 14:19:19,0830 ~ 1900,0830 ~ 1900,0830 ~ 1900,02-2204-7970,20분,37.563459744,127.05530226
공유) 20-13(구),성동구 용답동 6-1 ,NS,36,900,30,900,30,10000,33,2024-10-02 14:19:13,0830 ~ 1900,0830 ~ 1900,0830 ~ 1900,02-2204-7970,20분,37.563808429,127.05611228
공유) 20-14(구),성동구 용답동 180-0,NS,62,900,30,900,30,10000,57,2024-10-02 14:19:09,0830 ~ 1900,0830 ~ 1900,0830 ~ 1900,02-2204-7970,20분,37.562385913,127.05569544
공유) 20-15(구),성동구 용답동 24-37,NS,10,900,30,900,30,10000,8,2024-10-02 14:19:13,0830 ~ 1900,0830 ~ 1900,0830 ~ 1900,02-2204-7970,20분,37.56180365,127.05525815
공유) 20-33(구),성동구 용답동 180-0 ,NS,19,900,30,900,30,10000,24,2024-10-02 14:19:17,0830 ~ 1900,0830 ~ 1900,0830 ~ 1900,02-2204-7970,20분,37.56340931,127.05604091
공유) 20-34(구),성동구 용답동 249-8,NS,15,900,30,900,30,10000,11,2024-10-02 14:19:08,0830 ~ 1900,0830 ~ 1900,0830 ~ 1900,02-2204-7970,20분,37.56064519,127.0567091
용답제2(평면) 공영주차장(구),성동구 용답동 182-10,NW,145,150,5,150,5,,119,2024-10-02 14:22:37,0000 ~ 2400,0000 ~ 2400,0000 ~ 2400,02-2204-7970,20분,37.56328524,127.05628296
공유) 20-23(구),성동구 용답동 159-10,NS,10,900,30,900,30,10000,18,2024-10-02 14:19:15,0830 ~ 1900,0830 ~ 1900,0830 ~ 1900,02-2204-7970,20분,37.564765176,127.05003976
공유) 20-26(구),성동구 용답동 40-3,NS,17,900,30,900,30,10000,15,2024-10-02 14:19:13,0830 ~ 1900,0830 ~ 1900,0830 ~ 1900,02-2204-7970,20분,37.56161106,127.0518833
용답동(건물) 공영주차장(구),성동구 용답동 4-1,NW,164,100,5,100,5,,131,2024-10-02 14:27:00,0000 ~ 2400,0000 ~ 2400,0000 ~ 2400,02-2204-7970,20분,37.56458022,127.05432169
공유) 05-08(구),성동구 사근동 190-62,NS,9,900,30,900,30,10000,7,2024-10-02 14:19:11,0830 ~ 1900,0830 ~ 1900,0830 ~ 1900,02-2204-7970,20분,37.560745,127.04879
공유) 04-20(구),성동구 마장동 794-2,NS,4,900,30,900,30,10000,4,2024-10-02 14:19:18,0830 ~ 1900,0830 ~ 1900,0830 ~ 1900,02-2204-7970,20분,37.56367,127.04215
공유) 04-22(구),성동구 마장동 399-58,NS,15,900,30,900,30,10000,13,2024-10-02 14:19:16,0830 ~ 1900,0830 ~ 1900,0830 ~ 1900,02-2204-7970,20분,37.5636,127.03874
경진주차장,성동구 하왕십리동 966-12 ,BS,17,2000,30,700,10,20000,17,2024-10-02 14:27:21,0000 ~ 2400,0000 ~ 0000,0000 ~ 0000,,20분,37.562606,127.032796
공유) 02-08(구),성동구 하왕십리동 970-71,NS,6,900,30,900,30,10000,0,2024-10-02 14:19:08,0830 ~ 1900,0830 ~ 1900,0830 ~ 1900,02-2204-7970,20분,37.56205,127.03303
공유) 03-20(구),성동구 도선동 12-1,NS,5,900,30,900,30,10000,5,2024-10-02 14:19:12,0830 ~ 1900,0830 ~ 1900,0830 ~ 1900,02-2204-7970,20분,37.564542348,127.03549
공유) 06-05(구),성동구 행당동 279-6,NS,9,900,30,900,30,10000,9,2024-10-02 14:19:16,0830 ~ 1900,0830 ~ 1900,0830 ~ 1900,02-2204-7970,20분,37.560946617,127.03450441
왕십리 민자역사 비트플렉스몰 ,성동구 행당동 168-151 ,BS,1000,0,0,1000,10,40000,693,2024-10-02 14:27:57,0000 ~ 2400,0000 ~ 2400,0000 ~ 2400,070-7119-2781,20분,37.562091,127.037925
공유) 02-07(구),성동구 하왕십리동 978-2,NS,7,900,30,900,30,10000,6,2024-10-02 14:19:12,0830 ~ 1900,0830 ~ 1900,0830 ~ 1900,02-2204-7970,20분,37.56083,127.03043
공유) 동화동 07(003~012구간)(구),중구 신당동 50-13,NS,10,600,30,600,30,0,0,2024-10-02 13:52:07,0000 ~ 2359,0000 ~ 2359,0000 ~ 2359,02-3396-6264,2시간,37.5625999,127.0176766
동화동 공영주차장(구),중구 신당동 52-7,NW,220,150,5,150,5,0,126,2024-10-02 14:26:44,0000 ~ 2400,0000 ~ 2400,0000 ~ 2400,02-2280-8368,20분,37.56137409,127.01900035
신당동 공영주차장(구),중구 신당동 300-6,NW,76,200,5,200,5,0,70,2024-10-02 14:09:25,0000 ~ 2400,0000 ~ 2400,0000 ~ 2400,02-2280-8368,20분,37.56204618,127.01442718
남산센트럴시티투웨니퍼스트오피스텔,중구 오장동 148-16 ,BS,100,3000,30,1000,10,50000,100,2024-10-02 14:27:24,0000 ~ 2400,0000 ~ 2400,0000 ~ 2400,,20분,37.564729,127.000972
마른내로 공영주차장(시),중구 오장동 69-3,NS,14,620,5,620,5,0,8,2024-10-02 14:27:42,0900 ~ 1800,0000 ~ 0000,0000 ~ 0000,02-2273-0006,20분,37.56463752,127.00142678
묵정공원지하 공영주차장(구),중구 충무로5가 21-0,NW,491,400,5,400,5,0,275,2024-10-02 14:25:46,0000 ~ 2400,0000 ~ 2400,0000 ~ 2400,02-2280-8368,20분,37.56379141,126.99979555
공유) 진양상가1구간 1-02면 (장애인전용)(구),중구 충무로4가 120-3,NS,1,300,30,100,10,0,0,2024-10-02 10:38:43,0900 ~ 1900,0900 ~ 1500,0000 ~ 0000,02-3396-6264,2일,37.5634183,126.9961205
마른내길 공영주차장(시),중구 인현동1가 87-10,NS,33,680,5,680,5,0,12,2024-10-02 14:27:32,0900 ~ 1900,0900 ~ 1500,0000 ~ 0000,02-2274-2009,20분,37.56440034,126.99357536
눈스퀘어 주차장,중구 명동2가 83-5 ,BS,109,3000,30,1000,10,10000,6,2024-10-02 14:20:02,0600 ~ 2300,0600 ~ 2300,0600 ~ 2300,02-1644-8830,20분,37.56342589,126.98293645
남대문 메사빌딩,중구 회현동1가 204-0 ,BS,336,1000,10,1000,10,0,114,2024-10-02 14:28:06,0600 ~ 2200,0600 ~ 2200,0600 ~ 2200,02-2170-5800,20분,37.5604002,126.979568
남대문 화물 공영주차장(시),중구 남대문로4가 24-1,NS,9,400,5,400,5,,3,2024-10-02 14:27:32,0900 ~ 1900,0900 ~ 1900,0900 ~ 1900,010-4194-3075,20분,37.56096448,126.97813425
롯데호텔 롯데백화점,중구 소공동 1-0 ,BS,1036,3000,30,1000,10,,956,2024-10-02 14:20:00,0000 ~ 2400,0000 ~ 2400,0000 ~ 2400,02-772-3077~8	,20분,37.56472646,126.98096695
신세계백화점 본점(신관),중구 충무로1가 54-0 ,BS,498,2000,10,2000,10,,587,2024-10-02 14:28:05,1000 ~ 2000,1000 ~ 1900,1000 ~ 2000,02-310-1125,20분,37.560362,126.98095432
조선호텔 앞(구),중구 소공동 87-3 0,NS,12,600,5,600,5,0,4,2024-10-02 14:26:53,0900 ~ 2100,0900 ~ 1800,0000 ~ 0000,02-2280-8360,20분,37.56392121,126.98018973
한화생명 소공동사옥,중구 소공동 110-0 ,BS,459,3000,30,1000,10,0,374,2024-10-02 14:28:01,0000 ~ 2400,0000 ~ 2400,0000 ~ 2400,02-310-7165,20분,37.564168,126.978553
한화생명 태평로사옥,중구 태평로2가 43-0 ,BS,484,3000,30,1000,10,0,123,2024-10-02 14:24:02,0000 ~ 2400,0000 ~ 2400,0000 ~ 2400,02-6366-7701,20분,37.564181,126.977563
해운센터 앞(구),중구 소공동 59-0,NS,9,600,5,600,5,,1,2024-10-02 14:22:33,0900 ~ 2000,0900 ~ 1600,0000 ~ 0000,02-2280-8360,20분,37.56337305,126.98083219
서소문 시티스퀘어,중구 서소문동 143-0 ,BS,148,3000,30,3000,30,35000,147,2024-10-02 14:27:00,0000 ~ 2400,0000 ~ 2400,0000 ~ 2400,02-1522-0741,20분,37.563026,126.975362
서소문삼성생명뒤(구),중구 서소문동 122-0,NW,49,400,5,400,5,0,0,2024-10-02 14:27:08,0800 ~ 2200,0900 ~ 1800,0000 ~ 0000,02-310-9588,20분,37.561784,126.974236
서소문올리브타워 옆(구),중구 서소문동 135-1,NS,16,500,5,500,5,0,10,2024-10-02 14:23:53,0900 ~ 2000,0900 ~ 1600,0000 ~ 0000,02-2280-8360,20분,37.561736,126.973109
순화타워 주차장,중구 소공동 66-0 ,BS,96,3000,30,1000,10,0,88,2024-10-02 14:20:02,0000 ~ 2400,0000 ~ 0000,0000 ~ 0000,02-1644-8830,20분,37.561078,126.97227539
동아일보사 충정로사옥,서대문구 충정로3가 139-0 ,BS,170,750,10,4500,60,24000,84,2024-10-02 14:28:08,0000 ~ 2400,0000 ~ 0000,0000 ~ 0000,02-361-1167,20분,37.56188747,126.96337537
신촌 연세의료원,서대문구 신촌동 134-9000 ,BS,2682,2600,30,650,10,26000,2271,2024-10-02 14:27:46,0000 ~ 2400,0000 ~ 2400,0000 ~ 2400,02-2227-8024,20분,37.5610711,126.939164
마포중앙도서관 공영주차장(구),마포구 성산동 275-3,NW,193,0,30,200,5,,71,2024-10-02 14:28:13,0000 ~ 2400,0000 ~ 2400,0000 ~ 2400,02-334-5331,20분,37.56376056,126.90835345
마포클레세오피스텔,마포구 성산동 592-8,BS,130,1500,30,500,10,0,130,2024-10-02 14:27:23,0000 ~ 2400,0000 ~ 2400,0000 ~ 2400,,20분,37.564641,126.903576
성산2-1 공영주차장(구),마포구 성산동 199-0,NW,58,1000,60,500,30,0,3,2024-10-02 14:28:13,0900 ~ 1800,0000 ~ 0000,0000 ~ 0000,02-300-5046,20분,37.564801,126.906726
아트센타,마포구 성산동 266-1,BS,15,2500,30,2500,30,50000,15,2024-10-02 14:27:19,0000 ~ 2400,0000 ~ 2400,0000 ~ 2400,,20분,37.561969,126.905229
"난지공원1, 2, 3주차장",마포구 상암동 487-370 ,BP,544,1000,30,200,10,10000,21,2024-10-02 14:27:27,0900 ~ 2100,0900 ~ 2100,0900 ~ 2100,,20분,37.5613576,126.88728016
가양상가,강서구 등촌동 717-0,BS,55,2000,30,1000,15,20000,55,2024-10-02 14:27:24,0000 ~ 2400,0000 ~ 2400,0000 ~ 2400,,20분,37.562073,126.852591
금부빌딩,강서구 등촌동 73-1 ,BS,375,1000,10,1000,10,0,375,2024-10-02 14:27:15,0000 ~ 2400,0000 ~ 2400,0000 ~ 2400,010-4349-9240,20분,37.561606,126.853345
영보빌딩 공영주차장(시),강서구 가양동 1480-10,NW,79,260,5,260,5,18700,58,2024-10-02 14:28:11,0800 ~ 2100,0800 ~ 2100,0800 ~ 2100,010-9381-8004,20분,37.56332959,126.85308175
이스타빌1차,강서구 가양동 1480-5 ,BS,91,0,60,1500,30,10000,91,2024-10-02 14:27:20,0000 ~ 2400,0000 ~ 2400,0000 ~ 2400,,20분,37.562578,126.853005
홈플러스 가양점,강서구 가양동 18-24 ,BS,657,1000,10,1000,10,30000,624,2024-10-02 14:28:14,1000 ~ 2400,1000 ~ 2400,1000 ~ 2400,02-2063-2080,20분,37.564269,126.850032
리더스애비뉴 마곡,강서구 마곡동 791-7,BS,75,0,10,500,10,30000,75,2024-10-02 14:27:23,0000 ~ 2400,0000 ~ 2400,0000 ~ 2400,,20분,37.561364,126.837048
마곡테크노타워1차,강서구 마곡동 796-5,BS,35,1000,10,1000,10,50000,35,2024-10-02 14:27:18,0000 ~ 2400,0000 ~ 2400,0000 ~ 2400,,20분,37.560423,126.834402
롯데백화점 김포공항점 주차장,강서구 방화동 886-0 ,BS,4990,0,30,1000,30,25000,1553,2024-10-02 14:20:00,0000 ~ 2400,0000 ~ 2400,0000 ~ 2400,02-6116-4000,20분,37.564119,126.803464
김포국제공항 국제선 주차빌딩,강서구 방화동 886-9001 ,BS,567,1000,30,500,15,20000,427,2024-10-02 14:28:00,0000 ~ 2359,0000 ~ 2359,0000 ~ 2359,02-2660-2515,20분,37.56471,126.79971505
민속의 집 주차장(구),강동구 고덕동 215-0,NW,26,150,5,150,5,0,16,2024-10-02 14:28:10,0000 ~ 2400,0000 ~ 2400,0000 ~ 2400,070-7547-3512,20분,37.559645,127.168587
LG전자베스트샵 광진본점,광진구 중곡동 341-10 ,BS,24,3000,10,3000,10,100000,24,2024-10-02 14:27:26,0000 ~ 2400,0000 ~ 2400,0000 ~ 2400,,20분,37.556923,127.0811808
스테이더디자이너스군자오피스텔 주차장,광진구 군자동 473-21 ,BS,100,2000,30,500,10,20000,100,2024-10-02 14:27:15,0000 ~ 2400,0000 ~ 2400,0000 ~ 2400,02-6461-1200,20분,37.557336,127.077946
공유) 19-19(구),성동구 송정동 100-31 ,NS,28,900,30,900,30,10000,27,2024-10-02 14:19:09,0830 ~ 1900,0830 ~ 1900,0830 ~ 1900,02-2204-7970,20분,37.559330686,127.07301557
공유) 19-20(구),성동구 송정동 101-1,NS,16,900,30,900,30,10000,13,2024-10-02 14:19:17,0830 ~ 1900,0830 ~ 1900,0830 ~ 1900,02-2204-7970,20분,37.557880233,127.07211106
공유) 05-10(구),성동구 사근동 190-2,NW,25,900,30,900,30,10000,21,2024-10-02 14:19:17,0830 ~ 1900,0830 ~ 1900,0830 ~ 1900,02-2204-7970,20분,37.56016,127.048561
공유) 05-04(구),성동구 행당동 157-1,NS,8,900,30,900,30,10000,6,2024-10-02 14:19:17,0830 ~ 1900,0830 ~ 1900,0830 ~ 1900,02-2204-7970,20분,37.5585,127.03941
공유) 05-05(구),성동구 행당동 4-12,NS,21,900,30,900,30,10000,15,2024-10-02 14:19:12,0830 ~ 1900,0830 ~ 1900,0830 ~ 1900,02-2204-7970,20분,37.55997427,127.03930182
서울숲더샵아파트 주차장,성동구 행당동 155-1 ,BS,347,1500,30,500,10,0,347,2024-10-02 14:27:13,0000 ~ 2400,0000 ~ 2400,0000 ~ 2400,,20분,37.55715486,127.04012516
공유) 06-02(구),성동구 행당동 139-0,NS,8,900,30,900,30,10000,8,2024-10-02 14:19:13,0830 ~ 1900,0830 ~ 1900,0830 ~ 1900,02-2204-7970,20분,37.558574351,127.03574305
공유) 06-11(구),성동구 행당동 317-31,NS,9,900,30,900,30,10000,7,2024-10-02 14:19:18,0830 ~ 1900,0830 ~ 1900,0830 ~ 1900,02-2204-7970,20분,37.55906169,127.03298455
서울숲리버뷰자이아파트상가,성동구 행당동 380-0* ,BS,23,1500,30,500,10,0,23,2024-10-02 14:27:23,0000 ~ 2400,0000 ~ 2400,0000 ~ 2400,,20분,37.556314,127.038052
공유) 02-06(구),성동구 하왕십리동 1018-7,NS,9,900,30,900,30,10000,5,2024-10-02 14:19:12,0830 ~ 1900,0830 ~ 1900,0830 ~ 1900,02-2204-7970,20분,37.56028,127.02835
공유) 02-10(구),성동구 행당동 325-6,NS,7,900,30,900,30,10000,6,2024-10-02 14:19:11,0830 ~ 1900,0830 ~ 1900,0830 ~ 1900,02-2204-7970,20분,37.55987,127.02966
하왕십리(건물) 공영주차장(구),성동구 행당동 347-3,NW,96,100,5,100,5,,66,2024-10-02 14:12:51,0000 ~ 2400,0000 ~ 2400,0000 ~ 2400,02-2204-7970,20분,37.560316,127.027944
동산 공영주차장(구),중구 신당동 333-260,NW,83,150,5,150,5,0,66,2024-10-02 14:25:38,0000 ~ 2400,0000 ~ 2400,0000 ~ 2400,02-2280-8368,20분,37.55634366,127.01597608
공유) 청구동 05(001~013구간)(구),중구 신당동 340-20,NS,13,600,30,600,30,0,0,2024-10-02 13:41:05,0000 ~ 2359,0000 ~ 2359,0000 ~ 2359,02-3396-6264,2시간,37.5562788,127.0128583
약수빌딩 주차장,중구 신당동 340-73 ,BS,25,1500,30,500,10,50000,19,2024-10-02 14:28:30,0000 ~ 2400,0000 ~ 2400,0000 ~ 2400,,20분,37.55789144,127.01270923
청구 공영주차장(구),중구 신당동 330-17,NW,51,250,5,250,5,0,26,2024-10-02 14:24:48,0000 ~ 2400,0000 ~ 2400,0000 ~ 2400,02-2280-8368,20분,37.55897429,127.01340538
공유) 장충동 10(005~009구간)(구),중구 장충동2가 193-239,NS,5,600,30,600,30,0,0,2024-10-02 13:48:16,0000 ~ 2359,0000 ~ 2359,0000 ~ 2359,02-3396-6264,2시간,37.5590781,127.002698
앰배서더서울 풀만 호텔,중구 장충동2가 186-54 ,BS,341,2000,20,2000,10,0,146,2024-10-02 14:27:01,0000 ~ 2400,0000 ~ 2400,0000 ~ 2400,02-2275-1101,20분,37.5601902,127.002238
장충 공영주차장(구),중구 장충동2가 193-39,NW,118,150,5,150,5,0,88,2024-10-02 14:27:08,0000 ~ 2400,0000 ~ 2400,0000 ~ 2400,02-2280-8368,20분,37.56001,127.00131646
남산한옥마을 공영주차장(시),중구 필동2가 83-1,NW,16,430,5,430,5,30900,3,2024-10-02 14:28:14,0900 ~ 2000,0900 ~ 2000,0900 ~ 2000,010-4194-3075,20분,37.56005799,126.99316078
필동 공영주차장(구),중구 필동3가 62-12,NW,47,150,5,150,5,0,36,2024-10-02 14:27:44,0000 ~ 2400,0000 ~ 0000,0000 ~ 0000,02-2280-8368,20분,37.55660191,126.99589418
남산예장 관광버스전용 주차장(시),중구 예장동 4-1,NW,39,6000,120,500,5,0,17,2024-10-02 14:28:11,0600 ~ 2400,0600 ~ 2400,0600 ~ 2400,02-2290-7227,20분,37.559821,126.989076
남산동 공영주차장(구),중구 남산동2가 30-4,NW,48,250,5,250,5,0,47,2024-10-02 14:27:42,0000 ~ 2400,0000 ~ 0000,0000 ~ 0000,02-2280-8368,20분,37.55923691,126.98562404
남산케이블카 공영주차장(시),중구 회현동1가 1-19,NS,21,330,5,330,5,0,9,2024-10-02 14:28:12,0900 ~ 2100,0900 ~ 2100,0900 ~ 2100,010-4194-3075,20분,37.55631925,126.98415243
스테이트타워남산,중구 회현동2가 88-0 ,BS,300,1000,10,1000,10,0,227,2024-10-02 14:28:44,0000 ~ 2400,0000 ~ 2400,0000 ~ 2400,02-1899-7275,20분,37.560122,126.982947
남산공원 소파로 관광버스전용 주차장(시),중구 남창동 205-107 ,NS,21,0,0,0,0,0,17,2024-10-02 14:28:24,0000 ~ 0000,0000 ~ 0000,0000 ~ 0000,02-2290-6449,20분,37.55613113,126.97880145
국제화재빌딩 옆(구),중구 남대문로5가 145-0,NS,12,500,5,500,5,0,5,2024-10-02 14:09:31,0900 ~ 2000,0900 ~ 1600,0000 ~ 0000,02-2280-8360,20분,37.5581731,126.976018
남대문 시장 관광버스전용 주차장(시),중구 남창동 51-4,NS,2,0,0,0,0,0,3,2024-10-02 14:28:23,0000 ~ 0000,0000 ~ 0000,0000 ~ 0000,02)2290-6449,20분,37.55952,126.975908
남대문 초입 관광버스전용 주차장(시),중구 남창동 282-10,NS,3,0,0,0,0,0,3,2024-10-02 14:28:23,0000 ~ 0000,0000 ~ 0000,0000 ~ 0000,02)2290-6449,20분,37.55953,126.975731
남대문피혁상가 남측(구),중구 봉래동1가 13-1,NS,24,500,5,500,5,,2,2024-10-02 14:15:49,0900 ~ 2000,0900 ~ 1600,0000 ~ 0000,02-2280-8360,20분,37.559468,126.974095
한진면세점 앞(구),중구 남대문로5가 533-0,NS,18,250,5,250,5,,14,2024-10-02 14:18:56,0900 ~ 2000,0900 ~ 1600,0000 ~ 0000,02-2280-8360,20분,37.55631344,126.97560042
중림동 실로암빌딩	,중구 중림동 128-104 ,BS,126,2000,30,1000,15,40000,101,2024-10-02 14:27:01,0000 ~ 2400,0000 ~ 2400,0000 ~ 2400,02-364-3944,20분,37.557744,126.968618
중림종합복지센터 주차장,중구 중림동 155-1 ,BP,111,150,5,150,5,0,86,2024-10-02 14:20:42,0000 ~ 2400,0000 ~ 0000,0000 ~ 0000,02-2280-8368,20분,37.559389,126.966214
하이파킹 서울역 주차장,중구 봉래동2가 122-11 ,BS,767,3000,30,1000,10,0,0,2024-10-02 14:28:47,0000 ~ 2400,0000 ~ 2400,0000 ~ 2400,070-7119-2214,20분,37.555936,126.970221
공유) 중림동 11(001~009구간)(구),중구 중림동 401-1,NS,9,600,30,600,30,0,0,2024-10-01 17:01:54,0000 ~ 2359,0000 ~ 2359,0000 ~ 2359,02-3396-6264,2일,37.5590136,126.9624063
공유) 중림동 11(010~020구간)(구),중구 중림동 195-0,NS,11,600,30,600,30,0,0,2024-10-02 14:23:09,0000 ~ 2359,0000 ~ 2359,0000 ~ 2359,02-3396-6264,20분,37.558746,126.9642899
대흥2구역 공영주차장(구),마포구 대흥동 806-3,NW,20,250,5,250,5,0,16,2024-10-02 14:28:52,0000 ~ 2400,0000 ~ 2400,0000 ~ 2400,02-300-5046,20분,37.556123,126.945195
테라운드빌딩 주차장,서대문구 창천동 72-14 ,BS,39,3000,30,1000,10,30000,36,2024-10-02 14:28:23,0000 ~ 2400,0000 ~ 2400,0000 ~ 2400,02-337-2848,20분,37.55631688,126.93456352
현대백화점 신촌점,서대문구 창천동 30-33 ,BS,454,0,60,1000,10,0,317,2024-10-02 14:28:55,0000 ~ 2400,0000 ~ 0000,0000 ~ 0000,02-3145-3842,20분,37.55621008,126.93582104
LG전자베스트샵 동교점,마포구 동교동 173-3 ,BS,20,0,10,2000,10,30000,20,2024-10-02 14:28:43,0000 ~ 2400,0000 ~ 2400,0000 ~ 2400,,20분,37.558325,126.926802
공유) 9-88(구),마포구 동교동 192-1,NS,22,0,0,0,0,0,0,2024-10-02 13:19:55,0000 ~ 0000,0000 ~ 0000,0000 ~ 0000,,2시간,37.55678494,126.92851359
쓰리알유시티 주차장,서대문구 창천동 510-2 ,BS,23,2000,30,1000,15,20000,23,2024-10-02 14:28:32,0000 ~ 2400,0000 ~ 2400,0000 ~ 2400,,20분,37.55883346,126.92738241
애경타워 주차장,마포구 동교동 190-1 ,BS,149,2000,10,1000,10,0,94,2024-10-02 14:27:33,0700 ~ 2200,0900 ~ 2200,0900 ~ 2200,02-332-2610,20분,37.557095,126.927441
지남빌딩,마포구 연남동 565-15 ,BS,33,1500,30,500,10,20000,28,2024-10-02 14:28:55,0000 ~ 2400,0000 ~ 2400,0000 ~ 2400,,20분,37.56016449,126.92085666
아만티호텔 서울,마포구 서교동 447-1 ,BS,142,0,120,1000,10,30000,44,2024-10-02 14:28:53,0000 ~ 2400,0000 ~ 2400,0000 ~ 2400,02-332-0061,20분,37.557173,126.918598
망원노외주차장(구),마포구 망원동 478-10,NW,20,150,5,150,5,0,20,2024-10-02 14:28:58,0000 ~ 2400,0000 ~ 2400,0000 ~ 2400,02-300-5046,20분,37.559577,126.906609
망원1-1 공영주차장(구),마포구 망원동 418-39,NW,67,1000,60,500,30,0,8,2024-10-02 14:28:58,0900 ~ 1800,0000 ~ 0000,0000 ~ 0000,02-300-5046,20분,37.556025,126.900057
망원2-1 공영주차장(구),마포구 망원동 428-5,NW,58,1000,60,500,30,0,13,2024-10-02 14:28:58,0900 ~ 1800,0000 ~ 0000,0000 ~ 0000,,20분,37.557769,126.901535
가양3동 공영주차장(시),강서구 가양동 1488-12,NW,56,200,5,200,5,14400,959,2024-10-02 14:28:51,0900 ~ 1900,0900 ~ 1500,0000 ~ 0000,010-9381-8004,20분,37.56033753,126.85977547
강변샤르망1단지,강서구 등촌동 628-16,BS,94,1500,30,1500,30,30000,94,2024-10-02 14:28:40,0000 ~ 2400,0000 ~ 2400,0000 ~ 2400,,20분,37.559486,126.857267
강변샤르망2단지,강서구 등촌동 628-32,BS,90,1500,30,1500,30,30000,90,2024-10-02 14:28:39,0000 ~ 2400,0000 ~ 2400,0000 ~ 2400,,20분,37.559234,126.857549
강변샤르망3단지,강서구 등촌동 628-17,BS,134,1500,30,1500,30,30000,134,2024-10-02 14:28:40,0000 ~ 2400,0000 ~ 2400,0000 ~ 2400,,20분,37.559112,126.856912
더브리티시몰,강서구 등촌동 639-23 ,BS,115,1000,10,1000,10,15000,115,2024-10-02 14:28:32,0000 ~ 2400,0000 ~ 2400,0000 ~ 2400,,20분,37.557888,126.856062
홈플러스 강서점,강서구 등촌동 639-11 ,BS,1201,1000,10,1000,10,30000,726,2024-10-02 14:28:59,1000 ~ 2400,1000 ~ 2400,1000 ~ 2400,02-2660-8000,20분,37.558393,126.855058
VIPS프리미어 등촌점,강서구 등촌동 669-0,BS,50,1000,30,1000,30,30000,50,2024-10-02 14:28:40,0000 ~ 2400,0000 ~ 2400,0000 ~ 2400,,20분,37.558533,126.842206
NC 강서점,강서구 등촌동 689-0 ,BS,934,1000,10,1000,10,0,675,2024-10-02 14:28:39,1030 ~ 2100,1030 ~ 2200,1030 ~ 0900,02-2667-9000,20분,37.55998779,126.84037793
마곡센트럴타워1차,강서구 마곡동 774-4 ,BS,185,1500,30,500,10,30000,185,2024-10-02 14:28:41,0000 ~ 2400,0000 ~ 2400,0000 ~ 2400,,20분,37.559596,126.832672
열린M타워,강서구 마곡동 801-1 ,BS,303,0,30,1000,10,30000,303,2024-10-02 14:28:32,0000 ~ 2400,0000 ~ 2400,0000 ~ 2400,,20분,37.558435,126.834315
류마타워2차,강서구 마곡동 798-6 ,BS,135,0,15,1000,10,60000,135,2024-10-02 14:28:39,0000 ~ 2400,0000 ~ 2400,0000 ~ 2400,,20분,37.558938,126.824943
마곡테크노타워2 주차장,강서구 마곡동 799-17 ,BS,126,2000,30,500,10,30000,126,2024-10-02 14:28:32,0000 ~ 2400,0000 ~ 2400,0000 ~ 2400,,20분,37.558168,126.828561
메트로비즈타워,강서구 마곡동 799-6 ,BS,100,500,10,500,10,20000,100,2024-10-02 14:28:37,0000 ~ 2400,0000 ~ 2400,0000 ~ 2400,,20분,37.558244,126.827409
SB타워3 주차장,강서구 마곡동 798-4 ,BS,100,1500,30,500,10,0,70,2024-10-02 14:28:31,0000 ~ 2400,0000 ~ 2400,0000 ~ 2400,,20분,37.558933,126.82384
김포국제공항 국내선 제2주차장,강서구 공항동 1373-9001 ,BP,1391,1000,30,500,15,20000,1352,2024-10-02 14:29:00,0000 ~ 2359,0000 ~ 2359,0000 ~ 2359,02-2660-2515,20분,37.558348,126.807332
김포국제공항 국내선 제1주차장,강서구 공항동 1373-9000 ,BP,2279,1000,30,500,15,20000,2137,2024-10-02 14:29:05,0000 ~ 2359,0000 ~ 2359,0000 ~ 2359,02-2660-2515,20분,37.560122,126.804257
강동경희대학교병원,강동구 상일동 149-0 ,BS,514,3000,45,1000,15,66000,488,2024-10-02 14:29:07,0000 ~ 2400,0000 ~ 2400,0000 ~ 2400,02-1577-5800,20분,37.55292409,127.15748447
공유) 주양쇼핑앞 주차장(구),강동구 명일동 48-26 ,NS,5,0,0,0,0,0,4,2024-10-02 14:19:56,0000 ~ 0000,0000 ~ 0000,0000 ~ 0000,,20분,37.55183962,127.15475428
명성프라자 주차장,강동구 명일동 46-1,BS,73,1500,30,1500,30,30000,39,2024-10-02 14:28:32,0000 ~ 2400,0000 ~ 2400,0000 ~ 2400,,20분,37.55459836,127.15409092
명일동 공영주차장(시),강동구 명일동 47-9,NW,11,220,5,220,5,15800,8,2024-10-02 14:29:01,0900 ~ 2000,0900 ~ 1500,0000 ~ 0000,010-9381-8004,20분,37.55361065,127.15591212
이마트 명일점,강동구 명일동 47-7 ,BS,202,1000,10,1000,10,50000,263,2024-10-02 14:29:06,0630 ~ 2300,0630 ~ 2300,0630 ~ 2300,02-2145-1234,20분,37.5540192,127.1560139
볕우물 공영주차장(시),강동구 암사동 473-3,NW,96,130,5,130,5,9300,59,2024-10-02 14:28:51,0000 ~ 0000,0000 ~ 0000,0000 ~ 0000,02-2290-6410,20분,37.55237413,127.13512275
암사1동 주차장(구),강동구 암사동 59-2,NW,114,150,5,150,5,,82,2024-10-02 14:29:07,0000 ~ 2400,0000 ~ 2400,0000 ~ 2400,02-428-2431,20분,37.55289,127.1377215
어린이대공원(후문),광진구 능동 262-1 ,BP,250,150,5,150,5,,204,2024-10-02 14:29:07,0900 ~ 2200,0900 ~ 2200,0900 ~ 2200,02-456-8721,20분,37.55188775,127.08723617
공유) 능동 IoT 공유주차장(구),광진구 능동 314-6 ,NS,11,0,0,0,0,0,0,2024-10-02 12:19:35,0000 ~ 0000,0000 ~ 0000,0000 ~ 0000,0,2일,37.552018,127.078459
공유) 19-04(구),성동구 송정동 73-930,NS,17,900,30,900,30,10000,12,2024-10-02 14:19:14,0830 ~ 1900,0830 ~ 1900,0830 ~ 1900,02-2204-7970,20분,37.553013,127.067656
공유) 19-12(구),성동구 송정동 89-1 ,NS,10,900,30,900,30,10000,5,2024-10-02 14:29:09,0830 ~ 1900,0830 ~ 1900,0830 ~ 1900,02-2204-7970,20분,37.55572095,127.06986499
살곶이(평면) 공영주차장(구),성동구 사근동 104-0,NW,102,50,5,50,5,,101,2024-10-02 14:27:36,0000 ~ 2400,0000 ~ 2400,0000 ~ 2400,02-2204-7970,20분,37.55384954,127.04829171
공유) 08-10(구),성동구 응봉동 228-55,NS,10,900,30,900,30,10000,10,2024-10-02 14:29:14,0830 ~ 1900,0830 ~ 1900,0830 ~ 1900,02-2204-7970,20분,37.552156381,127.03658044
공유) 07-05(구),성동구 행당동 341-102,NS,12,900,30,900,30,10000,10,2024-10-02 14:19:18,0830 ~ 1900,0830 ~ 1900,0830 ~ 1900,02-2204-7970,20분,37.55402998,127.03167662
공유) 08-01(구),성동구 응봉동 265-314,NS,26,900,30,900,30,10000,19,2024-10-02 14:29:12,0830 ~ 1900,0830 ~ 1900,0830 ~ 1900,02-2204-7970,20분,37.55366,127.02757
공유) 08-02(구),성동구 응봉동 265-317,NS,31,900,30,900,30,10000,29,2024-10-02 14:29:08,0830 ~ 1900,0830 ~ 1900,0830 ~ 1900,02-2204-7970,20분,37.55243282,127.02893614
공유) 08-03(구),성동구 응봉동 265-153,NS,24,900,30,900,30,10000,21,2024-10-02 14:29:08,0830 ~ 1900,0830 ~ 1900,0830 ~ 1900,02-2204-7970,20분,37.5524,127.0316
공유) 08-12(구),성동구 응봉동 265-110,NS,11,900,30,900,30,10000,9,2024-10-02 14:29:08,0830 ~ 1900,0830 ~ 1900,0830 ~ 1900,02-2204-7970,20분,37.55457,127.02715
벽산하이피아프라자 별관,성동구 금호동1가 633-0*,BS,15,0,60,1000,30,15000,15,2024-10-02 14:28:41,0000 ~ 2400,0000 ~ 2400,0000 ~ 2400,,20분,37.551573,127.026326
공유) 10-01(구),성동구 금호동2가 9-1,NS,24,900,30,900,30,10000,10,2024-10-02 14:29:19,0830 ~ 1900,0830 ~ 1900,0830 ~ 1900,02-2204-7970,20분,37.555579891,127.01724708
공유) 10-02(구),성동구 금호동2가 9-1,NS,16,900,30,900,30,10000,7,2024-10-02 14:29:15,0830 ~ 1900,0830 ~ 1900,0830 ~ 1900,02-2204-7970,20분,37.55169,127.01771
공유) 10-05(구),성동구 금호동2가 501-36,NS,8,900,30,900,30,10000,0,2024-10-02 14:29:17,0830 ~ 1900,0830 ~ 1900,0830 ~ 1900,02-2204-7970,20분,37.5535238,127.01795732
금호초등학교,성동구 금호동2가 511-0 ,BS,123,100,5,100,5,0,74,2024-10-02 14:26:55,0000 ~ 2400,0000 ~ 2400,0000 ~ 2400,02-2204-7970,20분,37.552314,127.019668
신금호파크자이아파트 상가동,성동구 금호동2가 1-0 ,BS,28,3000,30,3000,30,50000,28,2024-10-02 14:28:43,0000 ~ 2400,0000 ~ 2400,0000 ~ 2400,,20분,37.555595,127.019728
약수동 공영주차장(구),중구 신당동 349-234,NW,88,150,5,150,5,0,26,2024-10-02 14:26:09,0000 ~ 2400,0000 ~ 2400,0000 ~ 2400,02-2280-8368,20분,37.55222214,127.01335763
공유) 다산동 03(001~055구간)(구),중구 신당동 832-0,NS,53,300,30,300,30,0,0,2024-10-02 14:28:51,0000 ~ 2359,0000 ~ 2359,0000 ~ 2359,02-3396-6264,20분,37.5556884,127.0066239
남산파출소 공영주차장(시),중구 회현동1가 1-16,NS,13,330,5,330,5,,8,2024-10-02 14:28:51,0900 ~ 1900,0900 ~ 1500,0000 ~ 0000,010-4194-3075,20분,37.55491405,126.98184962
소파로케이블카앞 관광버스전용 주차장(시),중구 회현동1가 1-15,NS,2,0,0,0,0,0,0,2024-10-02 14:29:04,0000 ~ 0000,0000 ~ 0000,0000 ~ 0000,02-2290-6449,20분,37.55519966,126.98374278
남산공원 소월로 관광버스전용 주차장(시),중구 남대문로5가 450-0,NS,12,0,0,0,0,0,11,2024-10-02 14:29:04,0000 ~ 0000,0000 ~ 0000,0000 ~ 0000,02-2290-6449,20분,37.55458553,126.97798499
T타워,중구 남대문로5가 827-0 ,BS,291,3000,30,1000,10,30000,134,2024-10-02 14:26:41,0000 ~ 2400,0000 ~ 2400,0000 ~ 2400,02-1688-1054,20분,37.55384119,126.97579392
공유) 회현동 12(005~013구간)(구),중구 남대문로5가 823-2,NS,9,600,30,600,30,0,0,2024-10-01 23:26:30,0000 ~ 2359,0000 ~ 2359,0000 ~ 2359,02-3396-6264,2일,37.5547328,126.9744666
손기정체육공원 공영주차장(구),중구 만리동2가 6-1,NW,189,150,5,150,5,0,157,2024-10-02 14:27:06,0000 ~ 2400,0000 ~ 2400,0000 ~ 2400,02-2280-8368,20분,37.55559696,126.96497303
한서 공영주차장(구),마포구 염리동 24-170,NW,113,1000,60,500,30,,17,2024-10-02 14:29:28,0900 ~ 1800,0000 ~ 0000,0000 ~ 0000,02-300-5046,20분,37.552856,126.949343
창천중교 공영주차장(구),마포구 노고산동 33-1,NW,280,200,5,200,5,0,266,2024-10-02 14:29:31,0000 ~ 2400,0000 ~ 2400,0000 ~ 2400,02-300-5052,20분,37.55473789,126.93943744
신촌노외 공영주차장(구),마포구 노고산동 49-64,NW,24,400,5,400,5,0,23,2024-10-02 14:29:29,0000 ~ 2400,0000 ~ 2400,0000 ~ 2400,02-300-5046,20분,37.553711,126.934128
에피소드 신촌369,마포구 노고산동 57-50 ,BS,193,3000,30,3000,30,20000,193,2024-10-02 14:28:38,0000 ~ 2400,0000 ~ 2400,0000 ~ 2400,,20분,37.554134,126.934784
라이즈 오토그래프컬렉션 호텔,마포구 서교동 354-5 ,BS,105,1000,15,1000,15,25000,53,2024-10-02 14:25:14,0000 ~ 2400,0000 ~ 2400,0000 ~ 2400,02-330-7969,20분,37.554439,126.921297
칼리오페 주차장,마포구 서교동 344-6 ,BS,32,3000,30,1000,10,30000,32,2024-10-02 14:28:32,0000 ~ 2400,0000 ~ 2400,0000 ~ 2400,,20분,37.55349117,126.92431124
망원1-2 공영주차장(구),마포구 망원동 403-2,NW,148,200,5,0,0,0,143,2024-10-02 14:29:31,0000 ~ 2400,0000 ~ 2400,0000 ~ 2400,02-300-5052,20분,37.55558459,126.90587312
망원2주차장[서울함공원옆],마포구 망원동 205-5 ,BP,229,1000,30,200,10,10000,157,2024-10-02 14:28:55,0900 ~ 2100,0900 ~ 2100,0900 ~ 2100,,20분,37.553965,126.896929
김포국제공항 화물청사 주차장,강서구 공항동 1373-9002 ,BP,1124,1000,30,500,15,12000,999,2024-10-02 14:29:34,0000 ~ 2359,0000 ~ 2359,0000 ~ 2359,02-2660-2515,20분,37.554713,126.809034
다올빌딩,강동구 상일동 502-2 ,BS,96,1000,15,500,15,0,75,2024-10-02 14:29:41,0000 ~ 2400,0000 ~ 2400,0000 ~ 2400,02-1588-5783,20분,37.54991985,127.17592213
한국종합기술 사옥[강동첨단 2호점],강동구 상일동 501-2,BS,300,1000,15,1000,15,40000,285,2024-10-02 14:29:37,0000 ~ 2400,0000 ~ 2400,0000 ~ 2400,,20분,37.54976664,127.17440477
명일동 주차장(구),강동구 명일동 312-250,NW,241,250,5,250,5,,189,2024-10-02 14:29:31,0000 ~ 2400,0000 ~ 2400,0000 ~ 2400,02-442-6124,20분,37.55097027,127.14292219
공유) 광장동 IoT 공유주차장(구),광진구 광장동 102-0 ,NS,39,0,0,0,0,0,0,2024-10-02 09:30:07,0000 ~ 0000,0000 ~ 0000,0000 ~ 0000,0,2일,37.551184,127.110972
한국소아마비협회,광진구 구의동 16-3,BS,150,1000,60,1000,30,20000,150,2024-10-02 14:28:34,0000 ~ 2400,0000 ~ 2400,0000 ~ 2400,,20분,37.550808,127.09759
어린이대공원(상상나라),광진구 능동 436-10 ,BP,394,150,5,150,5,,247,2024-10-02 14:29:40,0900 ~ 2200,0900 ~ 2200,0900 ~ 2200,02-456-8721,20분,37.55093306,127.07649254
공유) 19-17(구),성동구 송정동 68-57,NS,7,900,30,900,30,10000,0,2024-10-02 14:29:09,0830 ~ 1900,0830 ~ 1900,0830 ~ 1900,02-2204-7970,20분,37.550354126,127.06837751
공유) 19-21(구),성동구 송정동 73-568,NW,9,900,30,900,30,10000,0,2024-10-02 14:29:18,0830 ~ 1900,0830 ~ 1900,0830 ~ 1900,02-2204-7970,20분,37.550551,127.067161
송정동(건물) 공영주차장(구),성동구 송정동 68-57,NW,122,100,5,100,5,,83,2024-10-02 14:26:42,0000 ~ 2400,0000 ~ 2400,0000 ~ 2400,02-2204-7970,20분,37.549976,127.0680728
공유) 18-23(구),성동구 성수동2가 280-25,NS,6,900,30,900,30,10000,6,2024-10-02 14:29:17,0830 ~ 1900,0830 ~ 1900,0830 ~ 1900,02-2204-7970,20분,37.54742,127.06253
공유) 19-01(구),성동구 송정동 73-474,NS,39,900,30,900,30,10000,29,2024-10-02 14:29:18,0830 ~ 1900,0830 ~ 1900,0830 ~ 1900,02-2204-7970,20분,37.54887732,127.06327915
공유) 19-02(구),성동구 송정동 66-28,NS,8,900,30,900,30,10000,5,2024-10-02 14:29:15,0830 ~ 1900,0830 ~ 1900,0830 ~ 1900,02-2204-7970,20분,37.549574824,127.06457197
공유) 19-03(구),성동구 송정동 73-839 ,NS,21,900,30,900,30,10000,16,2024-10-02 14:29:07,0830 ~ 1900,0830 ~ 1900,0830 ~ 1900,02-2204-7970,20분,37.551250507,127.06615984
공유) 18-05(구),성동구 성수동2가 289-201,NS,19,900,30,900,30,10000,14,2024-10-02 14:29:09,1830 ~ 1900,0830 ~ 1900,0830 ~ 1900,02-2204-7970,20분,37.5487,127.05536127
공유) 18-11(구),성동구 성수동2가 278-3 ,NS,7,900,30,900,30,10000,8,2024-10-02 14:29:13,0830 ~ 1900,0830 ~ 1900,0830 ~ 1900,02-2204-7970,20분,37.5479718,127.05989
성수2가3동(건물) 공영주차장(구),성동구 성수동2가 299-19,NW,196,100,5,100,5,,191,2024-10-02 14:24:06,0000 ~ 2400,0000 ~ 2400,0000 ~ 2400,02-2204-7970,20분,37.54913662,127.05519826
공유) 16-09(구),성동구 성수동1가 13-298,NS,10,900,30,900,30,10000,11,2024-10-02 14:29:11,0830 ~ 1900,0830 ~ 1900,0830 ~ 1900,02-2204-7970,20분,37.55074865727688,127.05020070075989
공유) 16-10(구),성동구 성수동1가 13-219,NS,5,900,30,900,30,10000,4,2024-10-02 14:29:07,0830 ~ 1900,0830 ~ 1900,0830 ~ 1900,02-2204-7970,20분,37.55014473098784,127.050222158432
공유) 16-14(구),성동구 성수동1가 13-219,NS,15,900,30,900,30,10000,7,2024-10-02 14:29:12,0830 ~ 1900,0830 ~ 1900,0830 ~ 1900,02-2204-7970,20분,37.55066359753223,127.05024361610412
공유) 16-17(구),성동구 성수동1가 13-219,NS,10,900,30,900,30,10000,10,2024-10-02 14:29:16,0830 ~ 1900,0830 ~ 1900,0830 ~ 1900,02-2204-7970,20분,37.54740371784213,127.04962118328591
공유) 18-01(구),성동구 성수동2가 284-109 ,NS,16,900,30,900,30,10000,9,2024-10-02 14:29:12,0830 ~ 1900,0830 ~ 1900,0830 ~ 1900,02-2204-7970,20분,37.5494,127.0518
공유) 18-02(구),성동구 성수동2가 284-50,NS,10,900,30,900,30,10000,7,2024-10-02 14:29:09,0000 ~ 0000,0000 ~ 0000,0000 ~ 0000,02-2204-7970,20분,37.54819,127.05135405
공유) 18-03(구),성동구 성수동2가 284-22 ,NS,9,900,30,900,30,10000,4,2024-10-02 14:29:08,0830 ~ 1900,0830 ~ 1900,0830 ~ 1900,02-2204-7970,20분,37.54808,127.05362
서울숲아이티밸리,성동구 성수동1가 13-164 ,BS,300,1500,30,1500,30,0,240,2024-10-02 14:29:06,0000 ~ 2400,0000 ~ 2400,0000 ~ 2400,02-6965-7001,20분,37.547178,127.050013
공유) 16-01(구),성동구 성수동1가 656-1830 ,NS,11,900,30,900,30,10000,9,2024-10-02 14:29:12,0830 ~ 1900,0830 ~ 1900,0830 ~ 1900,02-2204-7970,20분,37.550820957,127.04624712
공유) 16-03(구),성동구 성수동1가 656-1264,NS,8,900,30,900,30,10000,7,2024-10-02 14:29:10,0830 ~ 1900,0830 ~ 1900,0830 ~ 1900,02-2204-7970,20분,37.550255309,127.04538345
공유) 16-04(구),성동구 성수동1가 656-2003 ,NS,15,900,30,900,30,10000,10,2024-10-02 14:29:14,0830 ~ 1900,0830 ~ 1900,0830 ~ 1900,02-2204-7970,20분,37.549511028,127.04634368
공유) 16-06(구),성동구 성수동1가 7-15,NS,7,900,30,900,30,10000,4,2024-10-02 14:29:18,0830 ~ 1900,0830 ~ 1900,0830 ~ 1900,02-2204-7970,20분,37.54866891869198,127.04750776290893
누디트서울숲 주차장,성동구 성수동1가 656-1731 ,BS,122,3000,30,1000,10,50000,94,2024-10-02 14:29:46,0000 ~ 2400,0000 ~ 0000,0000 ~ 0000,02-1811-8787,20분,37.547753,127.045195
공유) 16-36(구),성동구 성수동1가 676-1,NS,87,900,30,900,30,10000,78,2024-10-02 14:29:19,0830 ~ 1900,0830 ~ 1900,0830 ~ 1900,02-2204-7970,20분,37.5486300809474,127.04114608441367
뚝섬유수지(평면) 공영주차장(구),성동구 성수동1가 685-63,NW,352,150,5,150,5,0,333,2024-10-02 14:29:41,0000 ~ 2400,0000 ~ 2400,0000 ~ 2400,02-2204-7970,20분,37.54982,127.041794
공유) 08-07(구),성동구 응봉동 193-115,NS,7,900,30,900,30,10000,5,2024-10-02 14:29:08,0830 ~ 1900,0830 ~ 1900,0830 ~ 1900,02-2204-7970,20분,37.549464244,127.03298091
응봉동(평면) 공영주차장(구),성동구 응봉동 210-3,NW,65,100,5,100,5,0,51,2024-10-02 14:29:50,0000 ~ 2400,0000 ~ 2400,0000 ~ 2400,02-2204-7970,20분,37.549237,127.033572
공유) 12-02(구),성동구 금호동4가 633-0,NS,18,900,30,900,30,10000,12,2024-10-02 14:29:12,0830 ~ 1900,0830 ~ 1900,0830 ~ 1900,02-2204-7970,20분,37.546874087,127.02728588
공유) 09-02(구),성동구 금호동1가 1566-4,NS,33,900,30,900,30,10000,28,2024-10-02 14:29:18,0830 ~ 1900,0830 ~ 1900,0830 ~ 1900,02-2204-7970,20분,37.54994909,127.02660799
공유) 09-06(구),성동구 금호동1가 636-0,NW,18,900,30,900,30,10000,15,2024-10-02 14:29:16,0830 ~ 1900,0830 ~ 1900,0830 ~ 1900,02-2204-7970,20분,37.55082911,127.02632265
공유) 10-04(구),성동구 금호동3가 620-0,NS,33,900,30,900,30,10000,35,2024-10-02 14:29:07,0830 ~ 1900,0830 ~ 1900,0830 ~ 1900,02-2204-7970,20분,37.55087391,127.02336887
금남시장 공영주차장(구),성동구 금호동3가 294-0,NW,17,200,5,200,5,,11,2024-10-02 14:29:06,0000 ~ 2400,0000 ~ 2400,0000 ~ 2400,02-2204-7970,20분,37.5484862,127.0232804
공유) 11-05(구),성동구 금호동3가 1331-0,NS,16,900,30,900,30,10000,13,2024-10-02 14:29:10,0830 ~ 1900,0830 ~ 1900,0830 ~ 1900,02-2204-7970,20분,37.54896,127.01793
공유) 11-10(구),성동구 금호동3가 915-0,NS,37,900,30,900,30,10000,27,2024-10-02 14:29:10,0830 ~ 1900,0830 ~ 1900,0830 ~ 1900,02-2204-7970,20분,37.54968115,127.01962878
공유) 12-01(구),성동구 금호동4가 1507-0,NS,17,900,30,900,30,10000,14,2024-10-02 14:29:17,0830 ~ 1900,0830 ~ 1900,0830 ~ 1900,02-2204-7970,20분,37.5473207,127.01593307
장충단로(한남광장) 관광버스전용 주차장(시),용산구 한남동 9-19,NS,5,0,0,0,0,0,2,2024-10-02 14:29:43,0000 ~ 0000,0000 ~ 0000,0000 ~ 0000,02-2290-6449,20분,37.54738352,127.00269901
공덕1-1 공영주차장(구),마포구 공덕동 11-243,NW,80,1000,60,500,30,0,4,2024-10-02 14:30:03,0900 ~ 1800,0000 ~ 0000,0000 ~ 0000,02-300-5046,20분,37.547386,126.960882
서강대역 환승 공영주차장(구),마포구 신수동 93-35,NW,98,150,5,150,5,,78,2024-10-02 14:30:03,0000 ~ 2400,0000 ~ 2400,0000 ~ 2400,02-300-5052,20분,37.551022,126.936452
강동홈플러스 주차장,강동구 천호동 42-0 ,BS,719,,,,,,719,2024-10-02 14:26:35,0000 ~ 2400,0000 ~ 2400,0000 ~ 2400,080-330-3600,20분,37.54569237,127.14227409
천호1동 주차장(구),강동구 천호동 87-26,NW,188,150,5,150,5,,123,2024-10-02 14:30:13,0000 ~ 2400,0000 ~ 2400,0000 ~ 2400,02-487-0073,20분,37.544695,127.136656
고분다리전통시장 주차장(구),강동구 천호동 280-9,NW,26,150,5,150,5,85000,24,2024-10-02 14:30:18,0000 ~ 2400,0000 ~ 2400,0000 ~ 2400,070-7547-3512,20분,37.542974,127.132245
"광나루1, 2주차장",강동구 천호동 483-8 ,BP,168,1000,30,200,10,10000,338,2024-10-02 14:29:22,0900 ~ 2100,0900 ~ 2100,0900 ~ 2100,,20분,37.54524688,127.11991897
천호유수지 주차장(구),강동구 천호동 329-0,NW,168,150,5,150,5,0,93,2024-10-02 14:30:13,0000 ~ 2400,0000 ~ 2400,0000 ~ 2400,02-473-3124,20분,37.54482977,127.12189925
어린이대공원(구의문),광진구 능동 18-14 ,BP,335,150,5,150,5,,197,2024-10-02 14:30:11,0900 ~ 2200,0900 ~ 2200,0900 ~ 2200,02-456-8721,20분,37.5455346,127.0850851
빌리브인테라스,광진구 화양동 111-12 ,BS,286,1500,30,500,10,30000,286,2024-10-02 14:29:59,0000 ~ 2400,0000 ~ 0000,0000 ~ 0000,,20분,37.545989,127.0739607
공유) 18-21(구),성동구 성수동2가 279-1,NS,8,900,30,900,30,10000,6,2024-10-02 14:29:11,0830 ~ 1900,0830 ~ 1900,0830 ~ 1900,02-2204-7970,20분,37.54620633,127.06341326
공유) 18-25(구),성동구 성수동2가 277-43,NS,9,900,30,900,30,10000,6,2024-10-02 14:29:10,0830 ~ 1900,0830 ~ 1900,0830 ~ 1900,02-2204-7970,20분,37.54601,127.06187
공유) 18-29(구),성동구 성수동2가 277-37,NS,12,900,30,900,30,10000,12,2024-10-02 14:29:10,0830 ~ 1900,0830 ~ 1900,0830 ~ 1900,02-2204-7970,20분,37.543821505,127.0608382
공유) 18-41(구),성동구 성수동2가 276-4,NS,16,900,30,900,30,10000,10,2024-10-02 14:29:13,0830 ~ 1900,0830 ~ 1900,0830 ~ 1900,02-2204-7970,20분,37.54265418,127.06185
공유) 18-46(구),성동구 성수동2가 273-12,NS,17,900,30,900,30,10000,15,2024-10-02 14:29:18,0830 ~ 1900,0830 ~ 1900,0830 ~ 1900,02-2204-7970,20분,37.54246,127.06102609
공유) 18-10(구),성동구 성수동2가 277-17,NS,33,900,30,900,30,10000,17,2024-10-02 14:29:18,0830 ~ 1900,0830 ~ 1900,0830 ~ 1900,02-2204-7970,20분,37.54574,127.05851
공유) 18-14(구),성동구 성수동2가 278-32 ,NS,8,900,30,900,30,10000,7,2024-10-02 14:29:17,0830 ~ 1900,0830 ~ 1900,0830 ~ 1900,02-2204-7970,20분,37.5464,127.06045
공유) 18-15(구),성동구 성수동2가 277-25,NS,7,900,30,900,30,10000,6,2024-10-02 14:29:11,0830 ~ 1900,0830 ~ 1900,0830 ~ 1900,02-2204-7970,20분,37.545576848,127.05996
공유) 18-18(구),성동구 성수동2가 277-55 ,NS,8,900,30,900,30,10000,0,2024-10-02 14:29:16,0830 ~ 1900,0830 ~ 1900,0830 ~ 1900,02-2204-7970,20분,37.54452,127.05846
공유) 18-36(구),성동구 성수동2가 315-109,NS,15,900,30,900,30,10000,11,2024-10-02 14:29:15,0830 ~ 1900,0830 ~ 1900,0830 ~ 1900,02-2204-7970,20분,37.544130719,127.05642342
공유) 18-44(구),성동구 성수동2가 314-8 ,NS,9,900,30,900,30,10000,7,2024-10-02 14:29:17,0830 ~ 1900,0830 ~ 1900,0830 ~ 1900,02-2204-7970,20분,37.54396,127.05576
공유) 18-45(구),성동구 성수동2가 317-2,NS,13,900,30,900,30,10000,13,2024-10-02 14:29:08,0830 ~ 1900,0830 ~ 1900,0830 ~ 1900,02-2204-7970,20분,37.54314,127.0588
공유) 18-04(구),성동구 성수동2가 300-80 ,NS,20,900,30,900,30,10000,12,2024-10-02 14:29:15,0830 ~ 1900,0830 ~ 1900,0830 ~ 1900,02-2204-7970,20분,37.54659,127.05106
공유) 18-32(구),성동구 성수동2가 301-31,NS,9,900,30,900,30,10000,9,2024-10-02 14:29:13,0830 ~ 1900,0830 ~ 1900,0830 ~ 1900,02-2204-7970,20분,37.5453,127.05007
공유) 18-33(구),성동구 성수동2가 301-79,NS,10,900,30,900,30,10000,7,2024-10-02 14:29:15,0830 ~ 1900,0830 ~ 1900,0830 ~ 1900,02-2204-7970,20분,37.545614,127.052007
공유) 18-34(구),성동구 성수동2가 302-34,NS,8,900,30,900,30,10000,6,2024-10-02 14:29:10,0830 ~ 1900,0830 ~ 1900,0830 ~ 1900,02-2204-7970,20분,37.5439,127.05278
공유) 18-43(구),성동구 성수동2가 301-80 ,NS,21,900,30,900,30,10000,14,2024-10-02 14:29:16,0830 ~ 1900,0830 ~ 1900,0830 ~ 1900,02-2204-7970,20분,37.545479022,127.0505172
팩토리얼 성수,성동구 성수동2가 314-11 ,BS,154,3000,30,1000,10,,92,2024-10-02 14:23:20,0000 ~ 2400,0000 ~ 2400,0000 ~ 2400,02-1811-8787,20분,37.54422641973328,127.05447614192961
공유) 15-01(구),성동구 성수동1가 656-488,NS,6,900,30,900,30,10000,6,2024-10-02 14:29:16,0830 ~ 1900,0830 ~ 1900,0830 ~ 1900,02-2204-7970,20분,37.545839,127.045891
공유) 15-03(구),성동구 성수동1가 656-421,NS,12,900,30,900,30,10000,0,2024-10-02 14:29:14,0830 ~ 1900,0830 ~ 1900,0830 ~ 1900,02-2204-7970,20분,37.543620313,127.04537272
공유) 15-25(구),성동구 성수동1가 656-421,NS,13,900,30,900,30,10000,0,2024-10-02 14:29:11,0830 ~ 1900,0830 ~ 1900,0830 ~ 1900,02-2204-7970,20분,37.54314,127.04659
공유) 15-27(구),성동구 성수동1가 22-27,NS,32,900,30,900,30,10000,19,2024-10-02 14:29:17,0830 ~ 1900,0830 ~ 1900,0830 ~ 1900,02-2204-7970,20분,37.544292346,127.0470947
공유) 16-30(구),성동구 성수동1가 8-49,NS,7,900,30,900,30,10000,7,2024-10-02 14:29:10,0830 ~ 1900,0830 ~ 1900,0830 ~ 1900,02-2204-7970,20분,37.54677201040518,127.04723417758941
공유) 16-31(구),성동구 성수동1가 10-3,NS,7,900,30,900,30,10000,7,2024-10-02 14:29:08,0830 ~ 1900,0830 ~ 1900,0830 ~ 1900,02-2204-7970,20분,37.54587032406914,127.0472127199173
갤러리아포레 더몰 상가 주차장,성동구 성수동1가 685-696* ,BS,785,2000,10,2000,10,0,207,2024-10-02 14:28:34,0500 ~ 2340,0500 ~ 2340,0500 ~ 2340,02-468-5200,20분,37.545295,127.043045
공유) 14-02(구),성동구 옥수동 321-4,NS,38,900,30,900,30,10000,37,2024-10-02 14:29:13,0830 ~ 1900,0830 ~ 1900,0830 ~ 1900,02-2204-7970,20분,37.544193,127.016471
공유) 14-03(구),성동구 옥수동 558-0,NS,19,900,30,900,30,10000,13,2024-10-02 14:29:09,0830 ~ 1900,0830 ~ 1900,0830 ~ 1900,02-2204-7970,20분,37.54435,127.0169
옥수역 공영주차장(시),성동구 옥수동 401-1,NS,31,170,5,170,5,0,17,2024-10-02 14:30:23,0900 ~ 1900,0900 ~ 1500,0000 ~ 0000,010-9381-8004,20분,37.54249491,127.01721255
공덕 효성해링턴스퀘어 주차장,마포구 도화동 25-13 ,BS,260,3000,30,1000,10,,177,2024-10-02 14:30:02,0000 ~ 2400,0000 ~ 2400,0000 ~ 2400,010-2854-4608,20분,37.543023,126.951226
마포 재정회관빌딩,마포구 공덕동 253-42 ,BS,153,500,10,500,10,20000,76,2024-10-02 14:30:00,0600 ~ 2300,0600 ~ 2300,0600 ~ 2300,02-3274-2370,20분,37.546364,126.953287
마포신영지웰 주차장,마포구 공덕동 461-0 ,BS,208,1000,20,500,10,0,208,2024-10-02 14:29:46,0000 ~ 2400,0000 ~ 2400,0000 ~ 2400,,20분,37.5438757,126.95009648
별정우체국연금관리단빌딩,마포구 공덕동 254-8,BS,79,0,30,500,10,20000,79,2024-10-02 14:29:49,0000 ~ 2400,0000 ~ 2400,0000 ~ 2400,,20분,37.545954,126.953002
이마트 마포점[마포 공덕역 3호점],마포구 신공덕동 173-0 ,BS,364,1000,10,1000,10,30000,133,2024-10-02 14:30:37,0900 ~ 2100,0900 ~ 2100,0900 ~ 2100,,20분,37.54244058,126.95338137
나이스파크서강점주차장,마포구 구수동 60-0,BS,70,2000,30,2000,30,25000,70,2024-10-02 14:29:52,0000 ~ 2400,0000 ~ 2400,0000 ~ 2400,,20분,37.545996,126.932496
망원1주차장[당산철교북단],마포구 합정동 352-5 ,BP,128,1000,30,200,10,10000,89,2024-10-02 14:30:03,0900 ~ 2100,0900 ~ 2100,0900 ~ 2100,,20분,37.545234,126.909896
양화진 공영주차장(구),마포구 합정동 139-21,NW,133,200,5,200,5,0,39,2024-10-02 14:30:39,0000 ~ 2400,0000 ~ 2400,0000 ~ 2400,02-300-5046,20분,37.545722,126.911222
양화3주차장[양화선착장앞],영등포구 양화동 26-8 ,BP,393,1000,30,200,10,10000,144,2024-10-02 14:30:36,0900 ~ 2100,0900 ~ 2100,0900 ~ 2100,02-842-0224,20분,37.54489139,126.89289421
드림앤드림,강서구 화곡동 1024-9 ,BS,17,1500,30,1000,30,30000,17,2024-10-02 14:29:58,0000 ~ 2400,0000 ~ 2400,0000 ~ 2400,,20분,37.544613,126.837163
우성아트빌,강동구 길동 385-6,BS,76,1000,20,1000,20,15000,76,2024-10-02 14:29:55,0000 ~ 2400,0000 ~ 2400,0000 ~ 2400,,20분,37.538432,127.137169
천호3동 주차장(구),강동구 천호동 167-195,NW,187,150,5,150,5,,170,2024-10-02 14:30:44,0000 ~ 2400,0000 ~ 2400,0000 ~ 2400,02-472-0066,20분,37.53890256,127.13325491
천호3동제2 주차장(구),강동구 천호동 174-1,NW,183,150,5,150,5,,109,2024-10-02 14:30:34,0000 ~ 2400,0000 ~ 2400,0000 ~ 2400,02-482-1717,20분,37.54053,127.134109
2001아울렛 천호점[천호아울렛점],강동구 천호동 563-0,BS,296,1000,40,1000,10,0,174,2024-10-02 14:30:46,0000 ~ 2400,0000 ~ 2400,0000 ~ 2400,,20분,37.54131025,127.12594022
대우한강베네시티,강동구 천호동 425-5,BS,102,2000,30,2000,30,30000,102,2024-10-02 14:30:02,0000 ~ 2400,0000 ~ 0000,0000 ~ 0000,02-1522-0741,20분,37.540584,127.125039
천호역 공영주차장(시),강동구 천호동 455-0,NW,1431,260,5,260,5,18700,1321,2024-10-02 14:30:11,0000 ~ 2400,0000 ~ 2400,0000 ~ 2400,02-2290-6201,20분,37.53849749,127.12512853
현대백화점 천호점,강동구 천호동 455-8 ,BS,699,0,30,1000,10,0,359,2024-10-02 14:30:47,1000 ~ 2200,0000 ~ 0000,0000 ~ 0000,02-2225-8713,20분,37.53886562,127.12444339
광나루3주차장[천호대교 하부],송파구 풍납동 49-2,BP,191,1000,30,200,10,10000,12,2024-10-02 14:30:03,0900 ~ 2100,0900 ~ 2100,0900 ~ 2100,,20분,37.541306,127.116449
건국대학교사범대학부속중학교 주차장,광진구 화양동 528-0 ,BS,100,2000,30,2000,30,30000,100,2024-10-02 14:29:48,0000 ~ 2400,0000 ~ 2400,0000 ~ 2400,02-1899-7275,20분,37.54069,127.082013
LG전자베스트샵 건대입구점,광진구 자양동 227-318,BS,18,1000,10,1000,10,50000,18,2024-10-02 14:29:53,0000 ~ 2400,0000 ~ 2400,0000 ~ 2400,,20분,37.537905,127.076347
건국대학교병원,광진구 화양동 4-12 ,BS,659,0,30,500,10,20000,480,2024-10-02 14:30:46,0000 ~ 2400,0000 ~ 2400,0000 ~ 2400,02-2030-7967,20분,37.54043859,127.07212746
연한빌딩,광진구 화양동 6-2 ,BS,47,2000,30,500,10,24000,29,2024-10-02 14:30:00,0600 ~ 2400,0600 ~ 2400,0600 ~ 2400,02-499-5632,20분,37.54064061,127.07017995
자양4동 공영주차장(구),광진구 자양동 5-5,NW,83,150,5,0,0,0,73,2024-10-02 14:30:07,0000 ~ 2400,0000 ~ 2400,0000 ~ 2400,02-2049-4595,20분,37.53867795,127.06824343
공유) 17-12(구),성동구 성수동2가 269-16 ,NS,7,900,30,900,30,10000,0,2024-10-02 14:29:16,0830 ~ 1900,0830 ~ 1900,0830 ~ 1900,02-2204-7970,20분,37.5402418,127.0625534
공유) 17-11(구),성동구 성수동2가 268-0 ,NS,27,900,30,900,30,10000,21,2024-10-02 14:29:12,0830 ~ 1900,0830 ~ 1900,0830 ~ 1900,02-2204-7970,20분,37.53957343,127.0593229
공유) 17-13(구),성동구 성수동2가 272-41 ,NS,9,900,30,900,30,10000,0,2024-10-02 14:29:09,0830 ~ 1900,0830 ~ 1900,0830 ~ 1900,02-2204-7970,20분,37.5399746,127.06039855
공유) 17-16(구),성동구 성수동2가 330-4 ,NS,15,900,30,900,30,10000,15,2024-10-02 14:29:09,0830 ~ 1900,0830 ~ 1900,0830 ~ 1900,02-2204-7970,20분,37.5394386,127.0553073
공유) 17-18(구),성동구 성수동2가 269-236 ,NS,9,900,30,900,30,10000,4,2024-10-02 14:29:14,0830 ~ 1900,0830 ~ 1900,0830 ~ 1900,02-2204-7970,20분,37.53928655,127.06004897
공유) 17-31(구),성동구 성수동2가 331-79 ,NS,19,900,30,900,30,10000,17,2024-10-02 14:29:13,0830 ~ 1900,0830 ~ 1900,0830 ~ 1900,02-2204-7970,20분,37.5379131,127.05649422
공유) 17-38(구),성동구 성수동2가 590-1 ,NS,19,900,30,900,30,10000,13,2024-10-02 14:29:08,0830 ~ 1900,0830 ~ 1900,0830 ~ 1900,02-2204-7970,20분,37.537979165,127.05766797
공유) 18-40(구),성동구 성수동2가 273-39 ,NS,15,900,30,900,30,10000,16,2024-10-02 14:29:19,0830 ~ 1900,0830 ~ 1900,0830 ~ 1900,02-2204-7970,20분,37.542297497,127.05991029
공유) 18-48(구),성동구 성수동2가 273-60,NS,9,900,30,900,30,10000,9,2024-10-02 14:29:11,0830 ~ 1900,0830 ~ 1900,0830 ~ 1900,02-2204-7970,20분,37.54207,127.05925
무신사 E1,성동구 성수동2가 271-22,BS,70,1000,15,1000,15,40000,70,2024-10-02 14:30:28,0000 ~ 2400,0000 ~ 2400,0000 ~ 2400,010-5579-0907,20분,37.541721,127.058677
공유) 15-10(구),성동구 성수동2가 843-0 ,NS,23,900,30,900,30,10000,22,2024-10-02 14:29:14,0830 ~ 1900,0830 ~ 1900,0830 ~ 1900,02-2204-7970,20분,37.541901923,127.05103218
공유) 17-02(구),성동구 성수동2가 333-139,NS,24,900,30,900,30,10000,8,2024-10-02 14:29:08,0830 ~ 1900,0830 ~ 1900,0830 ~ 1900,02-2204-7970,20분,37.541200094,127.05371975
공유) 17-22(구),성동구 성수동2가 496-1,NS,5,900,30,900,30,10000,3,2024-10-02 14:29:18,0830 ~ 1900,0830 ~ 1900,0830 ~ 1900,02-2204-7970,20분,37.5383223,127.0520354
공유) 15-06(구),성동구 성수동1가 656-1661,NS,5,900,30,900,30,10000,5,2024-10-02 14:29:12,0830 ~ 1900,0830 ~ 1900,0830 ~ 1900,02-2204-7970,20분,37.54235,127.04897
공유) 15-12(구),성동구 성수동1가 34-9,NS,4,900,30,900,30,10000,4,2024-10-02 14:29:09,0830 ~ 1900,0830 ~ 1900,0830 ~ 1900,02-2204-7970,20분,37.54006,127.04911
공유) 15-23(구),성동구 성수동1가 656-243,NS,15,900,30,900,30,10000,15,2024-10-02 14:29:17,0830 ~ 1900,0830 ~ 1900,0830 ~ 1900,02-2204-7970,20분,37.54017,127.04673
메가박스 성수점,성동구 성수동1가 656-335 ,BS,230,2000,30,1000,10,20000,207,2024-10-02 14:30:22,0000 ~ 2359,0000 ~ 2359,0000 ~ 2359,080-330-3600,20분,37.5420109,127.044587
성수1가1동(건물) 공영주차장(구),성동구 성수동1가 656-260,NW,93,100,5,100,5,,89,2024-10-02 14:20:53,0000 ~ 2400,0000 ~ 2400,0000 ~ 2400,02-2204-7970,20분,37.53996228,127.04638485
에피소드 성수101 주차장,성동구 성수동1가 72-114 ,BS,48,1000,30,500,10,15000,48,2024-10-02 14:29:49,0000 ~ 2400,0000 ~ 2400,0000 ~ 2400,,20분,37.54078374,127.0487364
옥수유수지(평면) 공영주차장(구),성동구 옥수동 77-3,NW,47,150,5,150,5,0,41,2024-10-02 14:22:51,0000 ~ 2400,0000 ~ 2400,0000 ~ 2400,02-2204-7970,20분,37.541363,127.018293
한강진역 공영주차장(시),용산구 한남동 728-27,NW,174,400,5,400,5,28800,159,2024-10-02 14:30:51,0000 ~ 2400,0000 ~ 2400,0000 ~ 2400,02-795-6406,20분,37.53952176,127.00257963
용산더프라임,용산구 원효로1가 41-0 ,BS,902,1000,10,1000,10,30000,902,2024-10-02 14:29:50,0000 ~ 2400,0000 ~ 2400,0000 ~ 2400,,20분,37.540206,126.969997
경찰공제회 자람빌딩,마포구 도화동 566-0,BS,235,3000,60,1000,10,50000,94,2024-10-02 14:30:02,0000 ~ 2400,0000 ~ 2400,0000 ~ 2400,010-3379-6205,20분,37.541842,126.949689
도화 공영주차장(구),마포구 도화동 557-0,NW,63,250,5,250,5,,30,2024-10-02 14:31:04,0000 ~ 2400,0000 ~ 2400,0000 ~ 2400,02-300-5046,20분,37.54155295,126.94993374
마포아크로타워,마포구 도화동 563-0 ,BS,214,1500,30,1500,30,30000,45,2024-10-02 14:31:05,0900 ~ 2000,0900 ~ 2000,0900 ~ 2000,,20분,37.54133579,126.9489866
다보빌딩,마포구 마포동 140-0,BS,152,1500,30,500,10,20000,152,2024-10-02 14:29:50,0000 ~ 2400,0000 ~ 2400,0000 ~ 2400,,20분,37.538408,126.94504
마포유수지(시),마포구 마포동 36-1,NW,503,220,5,220,5,15800,320,2024-10-02 14:30:51,0000 ~ 2400,0000 ~ 2400,0000 ~ 2400,02-2290-6093,20분,37.53890027,126.94266859
염리 공영주차장(구),마포구 염리동 174-3,NW,135,250,5,250,5,0,97,2024-10-02 14:31:01,0000 ~ 2400,0000 ~ 2400,0000 ~ 2400,02-300-5052,20분,37.54199792,126.94523726
양화1주차장[당산철교 하부],영등포구 당산동 95-5 ,BP,88,1000,30,200,10,10000,59,2024-10-02 14:30:55,0600 ~ 2400,0600 ~ 2400,0600 ~ 2400,02-3780-0581,20분,37.53796609,126.90331806
양화2주차장[전망카페],영등포구 당산동 76-1 ,BP,20,1000,30,200,10,10000,17,2024-10-02 14:30:31,0000 ~ 2400,0000 ~ 2400,0000 ~ 2400,02-3780-0581~3,20분,37.5388433,126.90146242
볏골공원 지하공영주차장(구),강서구 화곡동 98-99,NW,231,1200,60,100,5,,296,2024-10-02 14:30:12,0000 ~ 0000,0000 ~ 0000,0000 ~ 0000,02-2065-1575,20분,37.54149243,126.84439601
LG전자베스트샵 강동본점,강동구 길동 413-45 ,BS,20,1000,10,1000,10,50000,20,2024-10-02 14:31:10,0000 ~ 2400,0000 ~ 2400,0000 ~ 2400,,20분,37.535495,127.138683
강동성심병원[본관/웰빙센터 주차장],강동구 길동 445-0 ,BS,128,0,30,1000,10,30000,271,2024-10-02 14:31:14,0000 ~ 2400,0000 ~ 2400,0000 ~ 2400,02-2225-2888,20분,37.536141,127.135263
석탄공회관 주차장,강동구 길동 414-1 ,BS,14,2000,30,1000,10,40000,14,2024-10-02 14:31:07,0000 ~ 2400,0000 ~ 2400,0000 ~ 2400,,20분,37.53722656,127.13773854
강동웨딩KDW 본관주차장,강동구 성내동 199-0 ,BS,157,2500,30,2500,30,0,127,2024-10-02 14:31:05,0800 ~ 2200,0000 ~ 2400,0000 ~ 2400,080-772-6400,20분,37.53516026,127.13365501
프린스 주차장,강동구 성내동 451-8 ,BS,17,2400,30,800,10,25000,17,2024-10-02 14:31:09,0000 ~ 2400,0000 ~ 2400,0000 ~ 2400,,20분,37.536952,127.129914
풍납1(구),송파구 풍납동 154-0,NW,46,50,5,,,,46,2024-10-02 14:31:05,0000 ~ 2400,0000 ~ 2400,0000 ~ 2400,010-4395-2165,20분,37.53551936,127.12029156
풍납2(구),송파구 풍납동 175-0,NW,81,50,5,,,,82,2024-10-02 14:31:05,0000 ~ 2400,0000 ~ 2400,0000 ~ 2400,010-4395-2165,20분,37.53604678,127.11607498
성진강변스파랜드,광진구 구의동 593-15 ,BS,139,600,10,600,10,36000,0,2024-10-02 14:31:15,0000 ~ 2400,0000 ~ 2400,0000 ~ 2400,02-444-2396,20분,37.5349417,127.09125929
신라빌딩[구의역 자양사거리점],광진구 자양동 779-6,BS,18,1000,20,1000,20,20000,14,2024-10-02 14:31:19,0000 ~ 2400,0000 ~ 2400,0000 ~ 2400,,20분,37.53702,127.082943
공유) 17-33(구),성동구 성수동2가 234-1,NS,13,900,30,900,30,10000,11,2024-10-02 14:29:08,0830 ~ 1900,0830 ~ 1900,0830 ~ 1900,02-2204-7970,20분,37.53732077,127.059491
공유) 17-37(구),성동구 성수동2가 593-0 ,NS,7,900,30,900,30,10000,6,2024-10-02 14:29:09,0830 ~ 1900,0830 ~ 1900,0830 ~ 1900,02-2204-7970,20분,37.536512557,127.05679357
공유) 17-40(구),성동구 성수동2가 574-24,NS,17,900,30,900,30,10000,15,2024-10-02 14:29:10,0830 ~ 1900,0830 ~ 1900,0830 ~ 1900,02-2204-7970,20분,37.5357232,127.05734114
성수2가1동(건물) 공영주차장(구),성동구 성수동2가 571-1,NW,163,100,5,100,5,,160,2024-10-02 14:25:02,0000 ~ 2400,0000 ~ 2400,0000 ~ 2400,02-2204-7970,20분,37.53716718,127.05619675
공유) 15-21(구),성동구 성수동1가 463-0 ,NS,26,900,30,900,30,10000,22,2024-10-02 14:29:15,0830 ~ 1900,0830 ~ 1900,0830 ~ 1900,02-2204-7970,20분,37.53641,127.04955
공유) 17-24(구),성동구 성수동2가 491-1,NS,10,900,30,900,30,10000,6,2024-10-02 14:29:11,0830 ~ 1900,0830 ~ 1900,0830 ~ 1900,02-2204-7970,20분,37.53701025,127.052308
공유) 17-25(구),성동구 성수동2가 442-0 ,NS,11,900,30,900,30,10000,11,2024-10-02 14:29:10,0830 ~ 1900,0830 ~ 1900,0830 ~ 1900,02-2204-7970,20분,37.53621904,127.05255568
공유) 17-26(구),성동구 성수동2가 403-4,NS,10,900,30,900,30,10000,9,2024-10-02 14:29:08,0830 ~ 1900,0830 ~ 1900,0830 ~ 1900,02-2204-7970,20분,37.53609568,127.0504367
공유) 17-27(구),성동구 성수동2가 623-0 ,NS,20,900,30,900,30,10000,18,2024-10-02 14:29:16,0830 ~ 1900,0830 ~ 1900,0830 ~ 1900,02-2204-7970,20분,37.535704332,127.05192804
공유) 17-29(구),성동구 성수동2가 527-0,NS,36,900,30,900,30,10000,26,2024-10-02 14:29:19,0000 ~ 0000,0000 ~ 0000,0000 ~ 0000,02-2204-7970,20분,37.5374,127.05428
공유) 17-41(구),성동구 성수동2가 639-0,NS,24,900,30,900,30,10000,18,2024-10-02 14:29:15,0830 ~ 1900,0830 ~ 1900,0830 ~ 1900,02-2204-7970,20분,37.535236407,127.053532
공유) 17-44(구),성동구 성수동2가 712-0 ,NS,11,900,30,900,30,10000,8,2024-10-02 14:29:10,0830 ~ 1900,0830 ~ 1900,0830 ~ 1900,02-2204-7970,20분,37.535542685,127.05442249
한남동 공영주차장(구),용산구 한남동 685-46,NW,250,250,5,250,5,,250,2024-10-02 14:31:27,0000 ~ 2400,0000 ~ 2400,0000 ~ 2400,02-749-3633,20분,37.53496611,127.00019178
이태원주차장(민영),용산구 이태원동 131-25,NP,13,3000,30,1500,10,0,13,2024-10-02 14:31:14,0000 ~ 2400,0000 ~ 2400,0000 ~ 2400,,20분,37.533664,126.994379
공유) 한강로동 32구간(구),용산구 한강로2가 15-6,NS,10,0,0,0,0,0,3,2024-10-02 14:15:55,0000 ~ 0000,0000 ~ 0000,0000 ~ 0000,,20분,37.53386,126.96795
삼각지고가밑 공영주차장(시),용산구 문배동 12-1,NS,16,250,5,250,5,0,8,2024-10-02 14:30:53,0900 ~ 1900,0900 ~ 1500,0000 ~ 0000,010-4194-3075,20분,37.53713406,126.9692661
용산주차빌딩 공영주차장(시),용산구 한강로2가 12-9,NW,561,300,5,300,5,21600,268,2024-10-02 14:31:31,0000 ~ 2400,0000 ~ 2400,0000 ~ 2400,02-2290-6014,20분,37.53436379,126.96541818
여의서로 공영주차장(시),영등포구 여의도동 8-1,NS,84,160,5,160,5,,41,2024-10-02 14:30:59,0900 ~ 1900,0900 ~ 1500,0000 ~ 0000,010-5670-4293,20분,37.53363126,126.91268727
목동체비지 공영주차장(시),양천구 목동 908-26,NW,55,130,5,130,5,9300,87,2024-10-02 14:31:31,0800 ~ 2100,0800 ~ 2100,0800 ~ 2100,010-9381-8004,20분,37.53679354,126.8806468
부영그린 공영노상주차장(구),양천구 목동 908-35,NS,17,150,5,0,0,9000,9,2024-10-02 14:28:40,0900 ~ 1900,0900 ~ 1500,0000 ~ 0000,02-2644-1386,20분,37.537282668073196,126.88113087040017
법안정사 공영주차장(구),양천구 목동 907-1,NS,38,150,5,0,0,9000,24,2024-10-02 14:26:08,0900 ~ 1900,0900 ~ 1500,0000 ~ 0000,02-2644-1386,20분,37.5358177386499,126.87745893754368
가로공원로 지하 주차장(구),강서구 화곡동 662-15,NW,500,100,5,100,5,5000,0,2024-10-02 14:28:36,0000 ~ 0000,0000 ~ 0000,0000 ~ 0000,02-2699-0802,20분,37.53758251,126.83934816
신월3동 여울공영주차장(구),양천구 신월동 151-5,NW,76,50,5,50,5,0,51,2024-10-02 14:31:36,0000 ~ 2400,0000 ~ 2400,0000 ~ 2400,02-2644-1386,20분,37.53504594,126.82414512
삼원빌딩,강동구 성내동 415-8,BS,37,3000,30,1000,10,40000,37,2024-10-02 14:31:15,0000 ~ 2400,0000 ~ 2400,0000 ~ 2400,,20분,37.529346,127.136281
안말 주차장(구),강동구 성내동 512-0,NW,169,150,5,150,5,,127,2024-10-02 14:31:33,0000 ~ 2400,0000 ~ 2400,0000 ~ 2400,02-482-3194,20분,37.531248,127.129855
공유) 15-가600구간(구),강동구 성내동 583-0,NS,4,0,0,0,0,0,2,2024-10-02 14:28:58,0000 ~ 0000,0000 ~ 0000,0000 ~ 0000,,20분,37.530569,127.12366237
와이엠프라젠스파,광진구 자양동 663-21 ,BS,201,0,0,0,0,0,4,2024-10-02 14:31:46,0000 ~ 2400,0000 ~ 2400,0000 ~ 2400,010-2619-4454,20분,37.53090327,127.08416216
편안한요양병원[광진자양점],광진구 자양동 685-0 ,BS,65,2000,30,500,10,30000,34,2024-10-02 14:31:42,0000 ~ 2400,0000 ~ 2400,0000 ~ 2400,02-6053-8585,20분,37.53157639,127.08647428
압구정29길 노상공영 주차장(구),강남구 압구정동 453-0,NS,137,200,5,200,5,0,101,2024-10-02 14:31:26,0900 ~ 1900,0000 ~ 0000,0000 ~ 0000,02-2176-0907,20분,37.531674,127.027216
동호대교(남) 공영주차장(시),강남구 압구정동 435-0,NS,18,170,5,170,5,0,15,2024-10-02 14:31:44,0900 ~ 1900,0900 ~ 1900,0000 ~ 0000,010-9381-8004,20분,37.53106835,127.02481727
공유) 한강로동 22구간(구),용산구 한강로2가 157-2,NS,4,0,0,0,0,0,0,2024-10-02 12:07:56,0000 ~ 0000,0000 ~ 0000,0000 ~ 0000,,2일,37.529486,126.97003
아모레퍼시픽 본사 주차장,용산구 한강로2가 424-0 ,BS,698,0,30,1000,10,30000,182,2024-10-02 14:31:51,0600 ~ 2300,0600 ~ 2300,0600 ~ 2300,02-6040-2467,20분,37.52917153,126.96843137
서울드래곤시티,용산구 한강로3가 40-969 ,BS,535,1000,10,1000,10,32000,296,2024-10-02 14:31:54,0000 ~ 2400,0000 ~ 2400,0000 ~ 2400,02-2223-7000,20분,37.532138,126.961445
세우빌딩,영등포구 여의도동 10-0 ,BS,49,3000,30,1000,10,0,0,2024-10-02 14:31:43,0000 ~ 2400,0000 ~ 2400,0000 ~ 2400,02-742-7713,20분,37.530037,126.926235
신한드림리버오피스텔 주차장,영등포구 여의도동 12-3 ,BS,232,3000,30,1000,10,50000,189,2024-10-02 14:31:07,0000 ~ 2400,0000 ~ 2400,0000 ~ 2400,,20분,37.529664,126.924537
여의도한강3주차장(서강대교남단),영등포구 여의도동 83-6 ,BP,800,2000,30,300,10,15000,607,2024-10-02 14:31:26,0900 ~ 2300,0900 ~ 2300,0900 ~ 2300,,20분,37.53240356,126.924436
당산고가밑 공영주차장(시),영등포구 당산동5가 9-15,NS,23,260,5,260,5,,14,2024-10-02 14:31:34,0900 ~ 1900,0900 ~ 1500,0000 ~ 0000,010-3934-4293,20분,37.53261905,126.90086754
당산역효성해링턴타워오피스텔 주차장,영등포구 당산동5가 9-3 ,BS,378,1500,30,500,10,20000,378,2024-10-02 14:31:05,0000 ~ 2400,0000 ~ 2400,0000 ~ 2400,,20분,37.532719,126.9005
양천사회단체봉사센터 공영주차장(구),양천구 목동 905-29,NW,21,150,5,0,0,,14,2024-10-02 14:30:51,0900 ~ 1900,0000 ~ 0000,0000 ~ 0000,02-2644-1386,20분,37.531871,126.875505
중소기업유통센터(행복한백화점),양천구 목동 917-6 ,BP,622,0,60,500,10,0,488,2024-10-02 14:31:58,0000 ~ 2359,0000 ~ 2359,0000 ~ 2359,02-6678-9940,20분,37.52937002,126.87612377
홈플러스 목동점,양천구 목동 919-7,BS,915,1000,10,1000,10,30000,30,2024-10-02 14:32:03,1000 ~ 2400,1000 ~ 2400,1000 ~ 2400,02-2644-2080,20분,37.530284,126.873283
신영시장 공동주차장(구),양천구 신월동 114-16,NW,23,150,5,150,5,9000,15,2024-10-02 14:32:02,0900 ~ 1900,0900 ~ 1900,0900 ~ 1900,02-2644-1386,20분,37.53302124,126.83625423
풍납유수지(구),송파구 가락동 387-0,NW,234,250,5,,,0,229,2024-10-02 14:31:05,0000 ~ 2400,0000 ~ 2400,0000 ~ 2400,02-474-9906,20분,37.52529597,127.10604326
갤러리아백화점 명품관 EAST,강남구 압구정동 515-0,BS,197,0,30,1000,10,0,78,2024-10-02 14:32:12,1030 ~ 2000,1030 ~ 2030,0000 ~ 0000,,20분,37.52808559,127.04159925
갤러리아백화점 명품관 WEST,강남구 압구정동 494-0 ,BS,177,0,30,1000,10,0,256,2024-10-02 14:32:12,1030 ~ 2000,1030 ~ 2030,0000 ~ 0000,02-3449-4352,20분,37.52857263,127.0400765
압구정고가1 공영주차장(시),강남구 신사동 668-0,NS,19,500,5,500,5,0,2,2024-10-02 14:31:40,0800 ~ 2100,0900 ~ 2100,0900 ~ 2100,010-9381-8004,20분,37.526269,127.028388
압구정고가2 공영주차장(시),강남구 신사동 668-0,NS,19,500,5,500,5,0,3,2024-10-02 14:31:42,0900 ~ 2000,0900 ~ 2100,0900 ~ 2100,010-9381-8004,20분,37.52581394,127.0283654
언주로171길(구),강남구 신사동 668-11,NS,29,400,5,800,5,30000,67,2024-10-02 14:32:17,0900 ~ 1900,0000 ~ 0000,0000 ~ 0000,,20분,37.52761162,127.03170913
현대백화점 압구정 본점,강남구 압구정동 429-0 ,BS,325,600,10,600,10,42000,192,2024-10-02 14:30:46,1000 ~ 2200,0000 ~ 0000,0000 ~ 0000,02-3449-5747,20분,37.52732583,127.02746025
압구정 428 공영주차장(구),강남구 압구정동 428-0,NW,344,400,5,400,5,,263,2024-10-02 14:32:15,0900 ~ 2100,0900 ~ 2100,0900 ~ 2100,02-2176-0971,20분,37.52701729,127.02647115
"잠원1, 2, 3, 4, 5, 6주차장",강남구 압구정동 386-0 ,BP,735,1000,30,200,10,10000,206,2024-10-02 14:31:59,0900 ~ 2100,0900 ~ 2100,0900 ~ 2100,,20분,37.5275464,127.01895624
아이파크몰 용산점 주차장,용산구 한강로3가 40-999 ,BS,2483,1300,10,1300,10,0,1577,2024-10-02 14:30:01,0000 ~ 2400,0000 ~ 2400,0000 ~ 2400,02-2012-0074,20분,37.528694,126.963766
여의도한강2주차장(마포대교남단),영등포구 여의도동 84-4 ,BP,171,2000,30,300,10,15000,210,2024-10-02 14:31:39,0900 ~ 2100,0909 ~ 2100,0909 ~ 2100,02-747-5546,20분,37.528797,126.931198
파크원 주차장,영등포구 여의도동 22-0 ,BS,2433,3000,30,1000,10,50000,1151,2024-10-02 14:32:22,0000 ~ 2400,0000 ~ 2400,0000 ~ 2400,02-2164-9543,20분,37.52607331,126.92831446
IFC 서울 주차장,영등포구 여의도동 23-0 ,BS,2085,3000,30,1000,10,45000,1548,2024-10-02 14:32:23,0000 ~ 2400,0000 ~ 2400,0000 ~ 2400,02-6137-1049,20분,37.52497241,126.92532318
아이엠(im)증권빌딩,영등포구 여의도동 23-3 ,BS,320,1500,10,1500,10,40000,250,2024-10-02 14:31:44,0000 ~ 2400,0000 ~ 2400,0000 ~ 2400,02-1688-1054,20분,37.524501,126.923781
여의도한강4주차장(여의2교-하부파천교),영등포구 여의도동 19-0 ,BP,141,2000,30,300,10,15000,81,2024-10-02 14:31:54,0900 ~ 2100,0900 ~ 2100,0900 ~ 2100,,20분,37.526097,126.913163
당산2동(구),영등포구 당산동 121-105,NW,31,150,5,150,5,0,28,2024-10-02 14:32:21,0000 ~ 2400,0000 ~ 2400,0000 ~ 2400,02-2671-2049,20분,37.52824898,126.90779447
롯데마트맥스 영등포점,영등포구 영등포동8가 62-1 ,BS,685,500,10,500,10,30000,301,2024-10-02 14:32:26,0700 ~ 2300,0000 ~ 0000,0000 ~ 0000,,20분,37.52782182,126.90463093
당산노외 공영주차장(시),영등포구 당산동3가 2-1,NW,236,260,5,260,5,18700,54,2024-10-02 14:32:11,0800 ~ 2100,0800 ~ 2100,0800 ~ 2100,1533-2315,20분,37.52625065,126.89945376
영등포제2스포츠센터,영등포구 당산동4가 96-1 ,BP,44,0,0,0,0,0,26,2024-10-02 14:32:15,0600 ~ 2230,0800 ~ 1830,0000 ~ 0000,02-2630-2900,20분,37.526684,126.902742
코레일유통 본사 사옥 주차장,영등포구 당산동3가 2-7,BS,356,0,10,500,10,20000,359,2024-10-02 14:32:20,0500 ~ 2400,0500 ~ 2400,0500 ~ 2400,02-2069-2091,20분,37.525797,126.902025
당산근린공원 공영(구),영등포구 당산동3가 385-0,NW,190,150,5,150,5,0,191,2024-10-02 14:32:24,0000 ~ 2400,0000 ~ 2400,0000 ~ 2400,02-2677-1401,20분,37.52552609,126.89579413
서울양평점 롯데마트주차장(케이엠파크),영등포구 양평동3가 45-0 ,BS,507,500,10,500,10,20000,482,2024-10-02 14:32:27,1000 ~ 2300,1000 ~ 2300,1000 ~ 2300,,20분,37.52606684,126.89166568
영등포구청(구),영등포구 당산동3가 397-1,NS,9,1200,60,1200,60,0,3,2024-10-02 14:27:02,0900 ~ 1800,0000 ~ 0000,0000 ~ 0000,,20분,37.52603084,126.89527071
영등포구청별관 공영주차장(구),영등포구 당산동3가 560-0,NW,61,150,5,150,5,0,54,2024-10-02 14:31:45,0000 ~ 2359,0000 ~ 2359,0000 ~ 2359,02-2677-1401,20분,37.528464,126.89437002
웨스턴베니비스 영등포점,영등포구 당산동3가 393-0 ,BS,31,2000,30,1000,15,50000,31,2024-10-02 14:31:16,0000 ~ 2400,0000 ~ 2400,0000 ~ 2400,,20분,37.527596,126.896019
YP센터 주차장,영등포구 양평동3가 60-0 ,BS,103,3000,30,1000,10,80000,103,2024-10-02 14:32:21,0000 ~ 2400,0000 ~ 2400,0000 ~ 2400,,20분,37.52853206,126.89149431
우림이비지센타 주차장,영등포구 양평동3가 16-0 ,BS,350,0,30,1000,30,0,223,2024-10-02 14:30:59,0000 ~ 2400,0000 ~ 2400,0000 ~ 2400,010-9119-7503,20분,37.52579977,126.88797228
현대41타워옆 노상공영주차장(구),양천구 목동 917-2,NS,25,150,5,0,0,9000,15,2024-10-02 14:32:20,0900 ~ 1900,0900 ~ 1900,0900 ~ 1900,02-2644-1386,20분,37.52790955709728,126.87469438548557
현대백화점 목동점,양천구 목동 916-0 ,BS,1219,0,60,1000,10,0,685,2024-10-02 14:28:59,1000 ~ 2100,0000 ~ 0000,0000 ~ 0000,02-2163-2912,20분,37.52685813,126.87503705
NH농협은행 목동역지점,양천구 신정동 900-8 ,BS,26,2000,30,1000,10,30000,13,2024-10-02 14:32:26,0000 ~ 2400,0000 ~ 2400,0000 ~ 2400,,20분,37.527005,126.863928
신월4동 공영주차장(시),양천구 신월동 411-1,NW,46,120,5,120,5,8600,1,2024-10-02 14:32:11,0000 ~ 2400,0000 ~ 2400,0000 ~ 2400,02-2290-6311,20분,37.525643,126.837692
신천유수지 공영주차장(시),송파구 신천동 14-0,NW,192,260,5,260,5,18700,174,2024-10-02 14:32:11,0000 ~ 2400,0000 ~ 2400,0000 ~ 2400,02-414-6417,20분,37.52231457,127.10290327
청담동 삼강빌딩,강남구 청담동 133-2 ,BS,47,2000,30,1000,10,30000,47,2024-10-02 14:32:40,0600 ~ 2300,0600 ~ 2300,0600 ~ 2300,,20분,37.52061352,127.05741236
언북초교 공영주차장(구),강남구 청담동 27-0,NW,225,300,5,300,5,,161,2024-10-02 14:32:40,0000 ~ 2400,0000 ~ 2400,0000 ~ 2400,02-2176-0908,20분,37.51999434,127.04565885
선릉로146길 노상공영주차장(구),강남구 청담동 77-27,NS,32,400,5,0,0,,28,2024-10-02 14:32:37,1000 ~ 2000,0000 ~ 0000,0000 ~ 0000,,20분,37.52188443,127.0409429
도산대로45길(구),강남구 신사동 668-43,NS,32,400,5,4800,60,0,45,2024-10-02 14:32:42,1000 ~ 2000,0000 ~ 0000,0000 ~ 0000,02-1544-3113,20분,37.52381624,127.03561265
신구초 공영주차장(구),강남구 신사동 550-11,NW,185,300,5,300,5,0,178,2024-10-02 14:32:45,0000 ~ 2400,0000 ~ 2400,0000 ~ 2400,02-540-6149,20분,37.52309456,127.02429256
63스퀘어(63빌딩),영등포구 여의도동 60-0 ,BS,638,2000,30,0,0,0,181,2024-10-02 14:32:47,0000 ~ 2400,0000 ~ 2400,0000 ~ 2400,02-789-6325,20분,37.520253,126.939938
여의도한강공원1주차장(63빌딩앞),영등포구 여의도동 86-5 ,BP,462,2000,30,300,10,15000,399,2024-10-02 14:32:35,0900 ~ 2100,0900 ~ 2100,0900 ~ 2100,027475645,20분,37.52217837,126.93973139
원효대교 남단 공영주차장(시),영등포구 여의도동 5-0,NS,13,160,5,160,5,,7,2024-10-02 14:32:14,0000 ~ 2400,0000 ~ 2400,0000 ~ 2400,010-5670-4293,20분,37.52249148,126.93704902
씨티플라자 주차장,영등포구 여의도동 25-0 ,BS,123,700,10,700,10,20000,100,2024-10-02 14:30:01,0000 ~ 2400,0000 ~ 0000,0000 ~ 0000,02-1644-8830,20분,37.52407584,126.92604709
앵커원,영등포구 여의도동 525-0 ,BS,229,4500,30,1500,10,50000,130,2024-10-02 14:30:02,0000 ~ 2400,0000 ~ 2400,0000 ~ 2400,02-6072-3204,20분,37.5240936,126.9298043
여의도 사학연금(TP타워),영등포구 여의도동 27-2 ,BS,570,1000,10,1000,10,,987,2024-10-02 14:32:45,0000 ~ 2400,0000 ~ 2400,0000 ~ 2400,02-2158-7993,20분,37.52169298376825,126.92284405231476
현대차증권빌딩,영등포구 여의도동 23-9,BS,291,3000,30,1000,10,30000,291,2024-10-02 14:32:31,0000 ~ 2400,0000 ~ 2400,0000 ~ 2400,,20분,37.52406,126.924518
영등포구청역 공영주차장(시),영등포구 당산동3가 370-3,NW,137,260,5,260,5,18700,109,2024-10-02 14:32:51,0500 ~ 0100,0500 ~ 0100,0500 ~ 0100,02-2290-6089,20분,37.52432737,126.89548892
목동우림필유,양천구 신정동 319-0,BS,173,2000,30,2000,30,24000,173,2024-10-02 14:32:32,0000 ~ 2400,0000 ~ 2400,0000 ~ 2400,,20분,37.520883,126.869091
어울림 공영주차장(구),양천구 신정동 318-2,NW,32,150,5,0,0,0,23,2024-10-02 14:32:50,0900 ~ 1900,0900 ~ 1900,0000 ~ 0000,010-8947-9404,20분,37.522184,126.869169
제이월드빌,양천구 신정동 318-17,BS,150,2000,30,2000,30,24000,150,2024-10-02 14:32:32,0000 ~ 2400,0000 ~ 2400,0000 ~ 2400,,20분,37.521777,126.869513
한전 뒷길 노상주차장(구),양천구 신정동 319-25,NS,24,150,5,0,0,9000,10,2024-10-02 14:32:08,0900 ~ 1900,0900 ~ 1300,0000 ~ 0000,02-2644-1386,20분,37.52033936992335,126.86906678508328
LG전자베스트샵 양천본점,양천구 신정동 1027-4,BS,9,6000,60,1000,10,50000,9,2024-10-02 14:32:35,0000 ~ 2400,0000 ~ 2400,0000 ~ 2400,,20분,37.521383,126.857487
웃우물 공영주차장(시),양천구 신정동 943-25,NW,79,220,5,220,5,15800,56,2024-10-02 14:32:51,0000 ~ 2400,0000 ~ 2400,0000 ~ 2400,02-2290-6311,20분,37.52379759,126.85141746
동방숯가마사우나,양천구 신월동 607-1,BS,50,0,90,2000,30,0,50,2024-10-02 14:32:30,0000 ~ 2400,0000 ~ 2400,0000 ~ 2400,,20분,37.521433,126.846456
위례성길(구),송파구 방이동 94-3,NS,88,250,5,,,,83,2024-10-02 14:31:06,0900 ~ 2100,0900 ~ 2100,0900 ~ 2100,010-4267-2165,20분,37.51562144,127.11720151
잠실대명밸리온,송파구 방이동 43-0,BS,180,1000,10,1000,10,30000,180,2024-10-02 14:32:29,0000 ~ 2400,0000 ~ 2400,0000 ~ 2400,,20분,37.515711,127.111169
교통공원길(구),송파구 신천동 10-2,NS,67,250,5,,,,21,2024-10-02 14:31:06,0900 ~ 2100,0900 ~ 2100,0900 ~ 2100,010-4283-2165,20분,37.51668888,127.10343693
성내역(잠실나루역) 공영주차장(시),송파구 신천동 11-1,NS,28,250,5,250,5,,19,2024-10-02 14:32:59,0900 ~ 1800,0900 ~ 1500,0000 ~ 0000,010-9381-8004,20분,37.51806624,127.10505804
타워730 주차장,송파구 신천동 7-30,BS,331,1000,10,1000,10,0,272,2024-10-02 14:31:48,0700 ~ 2300,0700 ~ 2300,0700 ~ 2300,02-412-8730,20분,37.51579103,127.09910681
"잠실1, 2, 3, 4주차장",송파구 잠실동 1-1 ,BP,471,1000,30,200,10,10000,697,2024-10-02 14:32:29,0900 ~ 2100,0900 ~ 2100,0900 ~ 2100,,20분,37.517984,127.081214
강남구청사 삼성동 별관,강남구 삼성동 66-0,BS,42,0,60,300,5,28800,70,2024-10-02 14:33:05,0900 ~ 1800,0000 ~ 0000,0000 ~ 0000,02-1544-3113,20분,37.5160902,127.05208629
강남구청 주차장,강남구 삼성동 16-1 ,BP,120,0,30,300,5,30000,143,2024-10-02 14:33:04,0800 ~ 1900,0800 ~ 1900,0800 ~ 1900,02-3423-6833,20분,37.5175696,127.04750582
선릉로132길 노상공영 주차장(구),강남구 청담동 77-84,NS,17,400,5,400,5,,17,2024-10-02 14:32:50,0900 ~ 1900,0000 ~ 0000,0000 ~ 0000,,20분,37.51828534,127.04322537
언주로147길(구),강남구 논현동 279-22 언북중학교 뒷길,NS,13,400,5,800,5,30000,13,2024-10-02 14:33:07,0900 ~ 1900,0000 ~ 0000,0000 ~ 0000,,20분,37.51983461,127.03339974
파티오나인지상주차장,강남구 논현동 66-24* ,BS,20,3300,30,3300,30,0,12,2024-10-02 14:32:34,0000 ~ 2400,0000 ~ 2400,0000 ~ 2400,,20분,37.518087,127.0293906
파티오나인지하주차장,강남구 논현동 66-24 ,BS,100,3300,30,3300,30,0,63,2024-10-02 14:32:34,0000 ~ 2400,0000 ~ 2400,0000 ~ 2400,,20분,37.51829753,127.02916516
강남대로150길(구),강남구 논현동 280-1,NS,7,400,5,800,5,,1,2024-10-02 14:33:12,1000 ~ 2000,0000 ~ 0000,0000 ~ 0000,02-1544-3113,20분,37.515849,127.020618
이촌1주차장[반포대교북단 하류],용산구 서빙고동 287-4 ,BP,35,1000,30,200,10,10000,0,2024-10-02 14:32:36,0900 ~ 2100,0900 ~ 2100,0900 ~ 2100,,20분,37.51770458,126.99191955
동작대교 공영주차장(시),용산구 용산동6가 69-11,NW,88,120,5,120,5,8600,85,2024-10-02 14:32:51,0800 ~ 2200,0800 ~ 2200,0800 ~ 2200,010-4194-3075,20분,37.518577,126.983287
"이촌3, 4주차장",용산구 이촌동 302-17 ,BP,257,1000,30,200,10,10000,184,2024-10-02 14:33:04,0900 ~ 2100,0900 ~ 2100,0900 ~ 2100,,20분,37.5174522,126.97059677
여의도한강5주차장(성모병원앞),영등포구 여의도동 63-0 ,BP,217,1000,30,200,10,10000,190,2024-10-02 14:33:04,0900 ~ 2100,0900 ~ 2100,0900 ~ 2100,,20분,37.51696501,126.93576386
금융투자협회,영등포구 여의도동 45-2 ,BS,315,3000,30,1000,10,18000,219,2024-10-02 14:32:35,0600 ~ 2200,0000 ~ 0000,0000 ~ 0000,,20분,37.519058,126.927645
신길환승(5호선)(구),영등포구 영등포동1가 35-0,NW,88,100,5,100,5,0,75,2024-10-02 14:32:51,0000 ~ 2400,0000 ~ 2400,0000 ~ 2400,02-2677-1401,20분,37.51775234,126.91460391
영등포로터리 공영주차장(시),영등포구 영등포동1가 111-1,NS,10,130,5,130,5,,3,2024-10-02 14:33:04,0900 ~ 1900,0900 ~ 1500,0000 ~ 0000,010-2417-4293,20분,37.51815768,126.91153056
영등포 롯데역사 주차장,영등포구 영등포동 618-496 ,BS,1167,,10,,,,456,2024-10-02 14:30:00,0900 ~ 2200,0000 ~ 0000,0000 ~ 0000,02-2670-8292,20분,37.51597645,126.90749608
세미콜론문래,영등포구 문래동3가 55-18 ,BS,739,3000,30,1000,10,50000,651,2024-10-02 14:33:01,0000 ~ 2400,0000 ~ 2400,0000 ~ 2400,02-1688-1054,20분,37.516095,126.899927
영남 공영주차장(시),영등포구 영등포동4가 123-0,NW,570,160,5,160,5,11500,431,2024-10-02 14:32:51,0000 ~ 2400,0000 ~ 2400,0000 ~ 2400,02-1588-1054,20분,37.51947074,126.90260898
영등포동제3공영(구),영등포구 영등포동4가 442-0,NW,172,250,5,250,5,0,96,2024-10-02 14:33:20,0000 ~ 2400,0000 ~ 2400,0000 ~ 2400,02-2677-1401,20분,37.517985,126.902785
홈플러스 영등포점,영등포구 문래동3가 55-3 ,BS,839,1000,10,1000,10,30000,222,2024-10-02 14:33:19,1000 ~ 2400,1000 ~ 2400,1000 ~ 2400,02-2165-8000,20분,37.518244,126.895921
문래동공영(구),영등포구 문래동5가 3-0,NW,52,150,5,150,5,0,48,2024-10-02 14:32:57,0000 ~ 2400,0000 ~ 2400,0000 ~ 2400,02-2677-1401,20분,37.51631443,126.8877957
문화회관 동측 공영주차장(구),양천구 신정동 322-5,NW,80,150,5,,,9000,26,2024-10-02 14:29:20,0900 ~ 1900,0900 ~ 1900,0000 ~ 0000,02-2644-1386,20분,37.516978,126.863605
양천경찰서 노상공영주차장(구),양천구 신정동 322-3,NS,31,150,5,0,0,9000,14,2024-10-02 14:33:00,0900 ~ 1900,0900 ~ 1500,0000 ~ 0000,02-2644-1386,20분,37.51687019364009,126.86508588159528
양천구청 노상공영주차장(구),양천구 신정동 321-3,NS,70,150,5,0,0,9000,26,2024-10-02 14:32:57,0900 ~ 1900,0900 ~ 1500,0000 ~ 0000,02-2644-1386,20분,37.51796698162113,126.86650968602822
목동이스타빌,양천구 신정동 323-9,BS,308,1000,30,500,10,24000,308,2024-10-02 14:32:35,0000 ~ 2400,0000 ~ 2400,0000 ~ 2400,,20분,37.516409,126.862116
밝은빛 공영주차장(구),양천구 신정동 323-18,NW,23,150,5,,,,4,2024-10-02 14:29:20,0900 ~ 1900,0900 ~ 1900,0000 ~ 0000,010-5239-3367,20분,37.516179,126.861337
송파빌딩 주차장,송파구 방이동 22-3,BS,70,2000,30,1000,15,30000,21,2024-10-02 14:32:58,0000 ~ 0000,0000 ~ 0000,0000 ~ 0000,,20분,37.51511711,127.10725577
롯데월드타워몰 주차장,송파구 신천동 29-0 ,BS,2969,500,10,500,10,45000,1708,2024-10-02 14:30:00,0000 ~ 2400,0000 ~ 2400,0000 ~ 2400,02-3213-0277,20분,37.513214,127.103274
롯데캐슬골드,송파구 신천동 7-18,BS,491,,,,,,390,2024-10-02 14:33:34,0000 ~ 0000,0000 ~ 0000,0000 ~ 0000,,20분,37.51449368,127.10073623
잠실역 공영주차장(시),송파구 신천동 27-0,NW,357,400,5,400,5,28800,326,2024-10-02 14:33:31,0500 ~ 0100,0500 ~ 0100,0500 ~ 0100,02-2290-6402,20분,37.51427683,127.10341414
롯데월드 주차장,송파구 잠실동 40-1,BS,3051,1000,30,1000,10,48000,2152,2024-10-02 14:30:00,0000 ~ 2400,0000 ~ 2400,0000 ~ 2400,02-411-5574,20분,37.51142084,127.09804531
봉상시길(구),송파구 잠실동 175-10,NS,48,250,5,0,0,0,16,2024-10-02 14:31:05,0900 ~ 2100,0900 ~ 2100,0900 ~ 2100,,20분,37.51141972,127.0799307
JBK타워 주차장,강남구 삼성동 108-6,BS,38,2000,30,2000,30,50000,38,2024-10-02 14:32:24,0700 ~ 2400,0000 ~ 0000,0000 ~ 0000,,20분,37.51504294,127.06315005
삼성1문화센터 공영주차장(구),강남구 삼성동 161-2,NW,70,400,5,400,5,,46,2024-10-02 14:33:40,0000 ~ 2400,0000 ~ 2400,0000 ~ 2400,02-2176-0910,20분,37.51434435,127.0626519
영동대로106길(구),강남구 삼성동 172-7,NS,63,300,5,600,5,24000,18,2024-10-02 14:33:37,0900 ~ 1900,0000 ~ 0000,0000 ~ 0000,,20분,37.51405345,127.06394076
영동대로96길(구),강남구 삼성동 172-41,NS,81,300,5,600,5,24000,33,2024-10-02 14:33:37,0900 ~ 1900,0000 ~ 0000,0000 ~ 0000,,20분,37.51142444,127.06509668
코엑스 주차장,강남구 삼성동 159-0 ,BS,2123,2400,30,1200,15,48000,2581,2024-10-02 14:30:02,2400 ~ 0000,0000 ~ 0000,0000 ~ 0000,02-6002-7130,20분,37.51243164,127.05884715
호텔오크우드 주차장,강남구 삼성동 159-0* ,BS,454,3000,30,1500,15,60000,370,2024-10-02 14:26:04,0000 ~ 2400,0000 ~ 2400,0000 ~ 2400,02-3466-8266,20분,37.511048,127.058108
